City_ID,City,Lat,Lng,Max Temp,Humidity,Cloudiness,Wind Speed,Country,Date
0,ribeira grande,38.5167,-28.7,18.220000000000027,77,20,7.72,PT,1706980777
1,broome,42.2506,-75.833,1.410000000000025,78,40,4.12,US,1706980778
2,stephenville,32.2207,-98.2023,15.689999999999998,58,0,3.13,US,1706980568
3,minas de marcona,-15.2119,-75.1103,23.390000000000043,62,70,4.4,PE,1706980778
4,cabo san lucas,22.8909,-109.9124,23.120000000000005,55,0,8.75,MX,1706980669
5,maracas,-13.4411,-40.4308,28.74000000000001,34,89,3.02,BR,1706980778
6,adamstown,-25.066,-130.1015,24.54000000000002,76,87,1.72,PN,1706980714
7,bethel,41.3712,-73.414,4.4500000000000455,56,0,6.17,US,1706980779
8,twon-brass,4.3151,6.2418,28.920000000000016,64,68,4.81,NG,1706980779
9,fada,9.5667,8.3,30.879999999999995,14,2,0.14,NG,1706980779
10,bo phloi,14.3236,99.5161,25.99000000000001,70,26,1.41,TH,1706980779
11,grytviken,-54.2811,-36.5092,8.060000000000002,95,100,4.95,GS,1706980779
12,belyy yar,53.6039,91.3903,-16.060000000000002,92,40,1.0,RU,1706980779
13,hammerfest,70.6634,23.6821,-3.75,80,100,4.12,NO,1706980779
14,nova sintra,14.8667,-24.7167,21.32000000000005,67,63,5.73,CV,1706980574
15,waitangi,-43.9535,-176.5597,13.79000000000002,74,21,10.72,NZ,1706980714
16,port-aux-francais,-49.35,70.2167,7.560000000000002,77,52,2.52,TF,1706980780
17,edinburgh of the seven seas,-37.0676,-12.3116,16.210000000000036,72,30,10.14,SH,1706980780
18,mbaiki,3.8678,17.9892,29.010000000000048,27,93,0.68,CF,1706980780
19,san patricio,28.017,-97.5169,20.650000000000034,61,41,6.67,US,1706980781
20,blackmans bay,-43.0167,147.3167,15.850000000000023,85,100,1.74,AU,1706980781
21,mount gambier,-37.8333,140.7667,13.450000000000045,94,3,1.36,AU,1706980781
22,bilibino,68.0546,166.4372,-28.149999999999977,76,0,3.36,RU,1706980746
23,georgetown,5.4112,100.3354,28.960000000000036,86,20,1.54,MY,1706980683
24,wotho,10.1657,166.0102,26.590000000000032,83,36,9.59,MH,1706980781
25,nushki,29.5542,66.0215,11.930000000000007,40,36,3.37,PK,1706980781
26,malvan,16.0667,73.4667,24.560000000000002,67,80,2.55,IN,1706980782
27,xi'an,34.2583,108.9286,-2.5499999999999545,72,100,0.97,CN,1706980782
28,walvis bay,-22.9575,14.5053,23.53000000000003,73,90,0.0,NA,1706980782
29,enewetak,11.3474,162.3373,26.5,84,53,9.82,MH,1706980782
30,acajutla,13.5928,-89.8275,28.53000000000003,63,13,3.77,SV,1706980782
31,santa elena de uairen,4.6167,-61.1333,31.960000000000036,32,18,3.81,VE,1706980782
32,papatowai,-46.5619,169.4708,9.200000000000045,71,86,4.12,NZ,1706980783
33,ha'il,27.5219,41.6907,12.010000000000048,32,0,3.09,SA,1706980783
34,thompson,55.7435,-97.8558,-1.9099999999999682,100,100,4.12,CA,1706980783
35,iqaluit,63.7506,-68.5145,-25.149999999999977,69,20,5.14,CA,1706980783
36,tiksi,71.6872,128.8694,-35.859999999999985,100,100,2.36,RU,1706980580
37,chonchi,-42.6128,-73.8092,20.75,38,39,1.22,CL,1706980725
38,nabire,-3.3667,135.4833,24.640000000000043,93,97,1.1,ID,1706980784
39,puerto baquerizo moreno,-0.9,-89.6,28.55000000000001,84,40,7.72,EC,1706980585
40,gadzhiyevo,69.2551,33.3362,-6.0499999999999545,79,99,12.07,RU,1706980784
41,whitehorse,60.7161,-135.0538,-29.569999999999965,76,75,2.06,CA,1706980784
42,longyearbyen,78.2186,15.6401,-9.089999999999975,67,0,6.69,SJ,1706980784
43,portland,45.5234,-122.6762,8.230000000000018,91,40,0.89,US,1706980784
44,kuanda,56.3161,116.0806,-29.329999999999984,96,66,0.57,RU,1706980784
45,bredasdorp,-34.5322,20.0403,24.810000000000002,71,87,6.47,ZA,1706980785
46,khabarovsk,48.4808,135.0928,-21.409999999999968,77,0,4.0,RU,1706980785
47,kodiak,57.79,-152.4072,-4.269999999999982,80,100,0.0,US,1706980511
48,auerbach,50.5167,12.4,7.460000000000036,85,100,6.28,DE,1706980785
49,vorgashor,67.5833,63.95,-18.74999999999997,92,100,4.79,RU,1706980785
50,invercargill,-46.4,168.35,10.57000000000005,79,95,3.13,NZ,1706980712
51,santa terezinha,-29.9002,-50.0904,26.600000000000023,70,0,6.46,BR,1706980729
52,ushuaia,-54.8,-68.3,10.810000000000002,66,75,5.14,AR,1706980624
53,lata,40.1629,-8.3327,16.82000000000005,62,9,0.44,PT,1706980786
54,wailua homesteads,22.0669,-159.378,20.439999999999998,61,75,11.32,US,1706980786
55,chinde,26.8418,88.0763,7.78000000000003,67,29,2.11,NP,1706980786
56,muang phonsavan,19.45,103.2167,15.390000000000043,81,4,0.68,LA,1706980786
57,anadyr,64.75,177.4833,-19.71999999999997,70,0,5.0,RU,1706980714
58,stanley,54.868,-1.6985,7.770000000000039,78,20,5.66,GB,1706980786
59,richards bay,-28.783,32.0377,24.860000000000014,73,4,5.64,ZA,1706980787
60,ormara,25.2088,64.6357,23.5,82,40,8.55,PK,1706980787
61,nishinoomote,30.7333,131.0,17.150000000000034,87,100,7.59,JP,1706980787
62,taltal,-25.4,-70.4833,21.970000000000027,72,16,1.99,CL,1706980717
63,homosassa springs,28.8036,-82.5759,21.75,46,0,2.06,US,1706980787
64,mount isa,-20.7333,139.5,22.870000000000005,100,100,7.2,AU,1706980787
65,puerto natales,-51.7236,-72.4875,16.25,36,20,11.83,CL,1706980715
66,college,64.8569,-147.8028,-38.639999999999986,63,100,0.0,US,1706980788
67,maba,24.6841,113.5984,10.550000000000011,32,100,1.54,CN,1706980788
68,port blair,11.6667,92.75,25.02000000000004,88,10,0.0,IN,1706980772
69,sangin,32.0728,64.8359,9.650000000000034,30,14,1.86,AF,1706980788
70,constitucion,-35.3333,-72.4167,22.74000000000001,56,4,8.77,CL,1706980788
71,bissora,12.2231,-15.4475,37.04000000000002,9,0,2.1,GW,1706980697
72,jamestown,42.097,-79.2353,4.4500000000000455,77,0,1.54,US,1706980522
73,barcelos,41.5388,-8.6151,19.400000000000034,73,14,1.54,PT,1706980683
74,nueva loja,0.0847,-76.8828,27.010000000000048,78,75,1.03,EC,1706980789
75,caratinga,-19.7897,-42.1392,26.850000000000023,71,82,2.78,BR,1706980789
76,hradyz'k,49.2346,33.1361,2.57000000000005,96,100,7.97,UA,1706980789
77,albany,42.6001,-73.9662,1.6800000000000068,66,56,2.68,US,1706980521
78,ayr,55.4627,-4.6339,8.060000000000002,87,75,7.2,GB,1706980789
79,dzhetygara,52.1908,61.2006,-3.919999999999959,92,100,6.51,KZ,1706980790
80,port lincoln,-34.7333,135.8667,19.150000000000034,68,0,1.46,AU,1706980790
81,agat village,13.3886,144.6585,25.53000000000003,90,75,8.75,GU,1706980790
82,saipan,15.1355,145.701,26.390000000000043,73,0,9.77,MP,1706980711
83,mirnyy,62.5353,113.9611,-27.649999999999977,68,90,0.89,RU,1706980790
84,margaret river,-33.95,115.0667,16.860000000000014,58,48,6.82,AU,1706980726
85,bukama,-9.2,25.85,23.30000000000001,91,75,0.4,CD,1706980790
86,uvira,-3.4067,29.1458,24.24000000000001,82,72,2.41,CD,1706980791
87,weno,7.4515,151.8468,24.970000000000027,100,100,4.12,FM,1706980791
88,tazacorte,28.629,-17.9293,22.30000000000001,67,20,1.54,ES,1706980791
89,island harbour,50.724,-1.2758,12.860000000000014,90,98,2.24,GB,1706980791
90,den burg,53.0542,4.7972,9.980000000000018,93,100,5.14,NL,1706980791
91,rostovka,55.3842,71.8891,-14.060000000000002,98,96,3.32,RU,1706980791
92,khash,28.2211,61.2158,10.240000000000009,35,25,2.17,IR,1706980792
93,lufkin,31.3382,-94.7291,14.04000000000002,97,100,3.6,US,1706980681
94,iskateley,67.6803,53.1512,-12.769999999999982,86,24,6.26,RU,1706980792
95,puerto ayora,-0.7393,-90.3518,30.980000000000018,79,56,4.89,EC,1706980792
96,new plymouth,-39.0667,174.0833,11.560000000000002,70,53,3.16,NZ,1706980685
97,olonkinbyen,70.9221,-8.7187,-5.479999999999961,67,100,8.31,SJ,1706980792
98,nyurba,63.2842,118.3319,-21.70999999999998,90,100,3.1,RU,1706980793
99,punta arenas,-53.15,-70.9167,12.060000000000002,58,75,8.75,CL,1706980793
100,octeville,49.6261,-1.6435,10.270000000000039,93,100,8.23,FR,1706980793
101,yellowknife,62.456,-114.3525,-16.989999999999952,97,100,7.2,CA,1706980720
102,paradip garh,20.3167,86.6167,22.629999999999995,88,37,2.7,IN,1706980793
103,chibougamau,49.9168,-74.3659,-7.2099999999999795,79,100,4.12,CA,1706980641
104,utrik,11.2278,169.8474,26.310000000000002,77,25,9.71,MH,1706980794
105,uturoa,-16.7333,-151.4333,27.660000000000025,75,96,5.12,PF,1706980794
106,kilgore,32.3863,-94.8758,14.689999999999998,82,75,5.14,US,1706980794
107,bee ridge,27.2839,-82.4807,20.660000000000025,57,0,0.89,US,1706980794
108,afaahiti,-17.75,-149.2833,26.930000000000007,76,87,3.92,PF,1706980794
109,lihue,21.9789,-159.3672,20.77000000000004,59,75,11.32,US,1706980794
110,ouahigouya,13.5828,-2.4216,31.360000000000014,10,0,6.13,BF,1706980794
111,katabu,-4.9333,122.5167,25.140000000000043,91,98,1.04,ID,1706980713
112,ust-nera,64.5667,143.2,-27.99999999999997,100,99,1.91,RU,1706980795
113,petropavlovsk-kamchatsky,53.0452,158.6483,-19.669999999999987,85,0,4.0,RU,1706980795
114,smithers,54.7804,-127.1743,-9.819999999999993,100,75,1.03,CA,1706980795
115,ilulissat,69.2167,-51.1,-20.98999999999998,49,20,4.63,GL,1706980795
116,la passe,45.5549,-0.8967,7.1299999999999955,86,24,3.25,FR,1706980795
117,egilsstadir,65.2653,-14.3948,-2.0499999999999545,37,0,4.12,IS,1706980795
118,st. john's,47.5649,-52.7093,-1.2299999999999613,86,81,8.05,CA,1706980616
119,auki,-8.7676,160.7034,25.970000000000027,91,100,2.4,SB,1706980796
120,el jadid,33.2549,-8.506,17.77000000000004,67,18,4.48,MA,1706980688
121,kish,26.5578,54.0194,19.150000000000034,45,0,9.26,IR,1706980796
122,alice springs,-23.7,133.8833,29.560000000000002,30,100,4.63,AU,1706980796
123,kapuskasing,49.4169,-82.4331,0.05000000000001137,69,20,4.12,CA,1706980796
124,port-vila,-17.7338,168.3219,27.439999999999998,85,95,5.52,VU,1706980797
125,seven pagodas,12.6264,80.1722,26.03000000000003,78,17,4.96,IN,1706980797
126,tvoroyri,61.5556,-6.8111,4.610000000000014,76,100,16.12,FO,1706980797
127,lebu,-37.6167,-73.65,17.600000000000023,66,3,9.51,CL,1706980797
128,igarka,67.4667,86.5833,-12.259999999999991,96,100,4.49,RU,1706980797
129,colonia,50.9333,6.95,11.010000000000048,89,100,6.69,DE,1706980797
130,las terrenas,19.311,-69.5428,26.930000000000007,78,40,3.09,DO,1706980798
131,darwin,-12.4611,130.8418,27.99000000000001,85,100,6.71,AU,1706980798
132,yunak,38.8142,31.7322,0.29000000000002046,69,16,1.34,TR,1706980798
133,udachny,66.4167,112.4,-31.319999999999965,91,87,1.18,RU,1706980714
134,illapel,-31.6308,-71.1653,31.730000000000018,29,1,4.11,CL,1706980798
135,scone,56.4194,-3.4051,7.670000000000016,77,100,4.02,GB,1706980798
136,hawaiian paradise park,19.5933,-154.9731,18.730000000000018,94,100,7.2,US,1706980798
137,newman,37.3138,-121.0208,10.720000000000027,88,81,0.45,US,1706980722
138,fort bragg,35.139,-79.006,11.470000000000027,49,0,3.09,US,1706980799
139,qaqortoq,60.7167,-46.0333,-17.519999999999982,69,4,3.42,GL,1706980799
140,punaauia,-17.6333,-149.6,27.80000000000001,69,20,1.03,PF,1706980799
141,guatrache,-37.6678,-63.5302,32.30000000000001,18,34,7.03,AR,1706980799
142,mata-utu,-13.2816,-176.1745,26.78000000000003,90,100,8.85,WF,1706980799
143,gualeguay,-33.1416,-59.3097,41.150000000000034,17,0,1.29,AR,1706980799
144,la ronge,55.1001,-105.2842,1.1400000000000432,86,100,3.6,CA,1706980731
145,gole,52.1665,20.4937,9.57000000000005,76,100,9.26,PL,1706980800
146,nouadhibou,20.931,-17.0347,28.99000000000001,20,37,2.57,MR,1706980800
147,altpinar,39.2042,32.7478,0.2300000000000182,71,5,1.91,TR,1706980800
148,muravlenko,63.7898,74.523,-19.379999999999967,100,27,3.47,RU,1706980800
149,alta,69.9689,23.2717,-4.409999999999968,86,100,1.03,NO,1706980801
150,san jose del guaviare,2.5729,-72.6459,27.57000000000005,76,98,1.75,CO,1706980667
151,concepcion,-36.827,-73.0498,23.890000000000043,43,0,8.75,CL,1706980575
152,rovaniemi,66.5,25.7167,-3.329999999999984,86,0,5.14,FI,1706980801
153,jincheng,35.5022,112.8328,-5.92999999999995,96,93,0.58,CN,1706980801
154,lompoc,34.6391,-120.4579,12.180000000000007,66,100,2.57,US,1706980591
155,cururupu,-1.8283,-44.8683,31.560000000000002,52,69,3.4,BR,1706980802
156,hamilton,39.1834,-84.5333,8.060000000000002,69,0,3.6,US,1706980802
157,west island,-12.1568,96.8225,27.99000000000001,83,75,4.63,CC,1706980802
158,keflavik,64.0049,-22.5624,-2.0499999999999545,93,75,13.38,IS,1706980803
159,port mathurin,-19.6833,63.4167,26.710000000000036,73,19,7.4,MU,1706980720
160,yuzhno-kurilsk,44.0306,145.8556,-4.239999999999952,71,95,6.42,RU,1706980735
161,touggourt,33.1053,6.058,16.060000000000002,36,0,1.54,DZ,1706980803
162,simav,39.0882,28.9777,1.160000000000025,78,60,2.02,TR,1706980804
163,ternate,0.8,127.4,26.400000000000034,81,24,3.46,ID,1706980804
164,inhambane,-23.865,35.3833,25.350000000000023,76,94,4.03,MZ,1706980769
165,salinas,36.6777,-121.6555,10.460000000000036,82,75,7.2,US,1706980805
166,niquelandia,-14.4739,-48.4597,28.950000000000045,57,100,2.07,BR,1706980805
167,torquay,50.4638,-3.5143,12.550000000000011,93,74,2.24,GB,1706980627
168,gandajika,-6.75,23.95,23.05000000000001,84,69,0.56,CD,1706980805
169,sorong,-0.8833,131.25,27.670000000000016,82,71,6.53,ID,1706980806
170,patterson,37.4716,-121.1297,9.57000000000005,88,83,1.6,US,1706980806
171,tazovsky,67.4667,78.7,-14.310000000000002,93,100,3.36,RU,1706980806
172,kambove,-10.8764,26.5969,18.77000000000004,95,79,1.29,CD,1706980806
173,wanning,18.8003,110.3967,21.810000000000002,92,18,2.98,CN,1706980733
174,tramandai,-29.9847,-50.1336,26.860000000000014,68,0,6.21,BR,1706980807
175,jijiga,9.35,42.8,19.53000000000003,71,28,7.69,ET,1706980807
176,carnarvon,-24.8667,113.6333,23.52000000000004,82,3,10.77,AU,1706980807
177,hermanus,-34.4187,19.2345,25.450000000000045,64,71,5.9,ZA,1706980721
178,verkhnevilyuysk,63.4453,120.3167,-22.74999999999997,94,100,2.04,RU,1706980808
179,cidreira,-30.1811,-50.2056,26.430000000000007,69,0,6.7,BR,1706980808
180,tucurui,-3.7661,-49.6725,28.960000000000036,68,98,1.34,BR,1706980808
181,san pedro,14.35,121.0167,26.310000000000002,82,20,2.68,PH,1706980808
182,mana,5.6592,-53.7767,29.05000000000001,69,88,4.01,GF,1706980567
183,san luis de la loma,17.2706,-100.8939,28.52000000000004,53,0,3.83,MX,1706980774
184,east london,-33.0153,27.9116,25.32000000000005,85,14,7.08,ZA,1706980809
185,arkhangel'sk,64.5401,40.5433,-4.939999999999998,93,100,4.0,RU,1706980809
186,jayapura,-2.5333,140.7,23.660000000000025,90,93,1.71,ID,1706980809
187,vedea,43.7833,25.7833,7.28000000000003,67,19,3.92,RO,1706980809
188,hadibu,12.65,54.0333,25.08000000000004,76,85,3.2,YE,1706980810
189,kruisfontein,-34.0033,24.7314,23.27000000000004,91,84,4.48,ZA,1706980767
190,haiku-pauwela,20.9219,-156.3051,20.700000000000045,69,75,10.29,US,1706980744
191,touros,-5.1989,-35.4608,30.010000000000048,65,49,7.44,BR,1706980745
192,atafu village,-8.5421,-172.5159,28.78000000000003,77,100,8.58,TK,1706980811
193,alofi,-19.0595,-169.9187,24.939999999999998,100,100,1.54,NU,1706980729
194,makushino,55.2103,67.2442,-10.310000000000002,96,100,3.49,RU,1706980811
195,shakhtersk,48.0625,38.5167,-0.23999999999995225,98,100,7.89,UA,1706980811
196,tangalle,6.024,80.7911,24.760000000000048,86,53,3.25,LK,1706980811
197,nar'yan-mar,67.6713,53.087,-12.71999999999997,86,23,6.26,RU,1706980812
198,kerikeri,-35.2268,173.9474,11.620000000000005,88,2,1.6,NZ,1706980729
199,coari,-4.085,-63.1414,29.600000000000023,68,91,1.65,BR,1706980811
200,al bawiti,28.3492,28.8659,11.410000000000025,39,0,3.12,EG,1706980812
201,northam,51.0333,-4.2167,11.330000000000041,99,99,7.43,GB,1706980813
202,phang nga,8.4509,98.5298,26.02000000000004,85,15,1.01,TH,1706980560
203,posse,-14.0931,-46.3694,26.090000000000032,67,97,1.28,BR,1706980594
204,santa rosalia,27.3167,-112.2833,15.07000000000005,51,0,1.06,MX,1706980813
205,codrington,-38.2667,141.9667,14.140000000000043,92,20,1.78,AU,1706980813
206,villanueva,15.3167,-88.0,30.58000000000004,51,20,4.12,HN,1706980594
207,najran,17.4924,44.1277,18.360000000000014,30,47,2.6,SA,1706980814
208,port elizabeth,-33.918,25.5701,24.5,94,100,3.09,ZA,1706980814
209,novodvinsk,64.4165,40.8122,-5.139999999999986,98,79,3.1,RU,1706980814
210,sandnessjoen,66.0217,12.6316,-0.7099999999999795,98,100,11.04,NO,1706980815
211,peniche,39.3558,-9.3811,19.49000000000001,84,31,1.98,PT,1706980815
212,itaituba,-4.2761,-55.9836,31.090000000000032,66,40,4.12,BR,1706980815
213,geraldton,-28.7667,114.6,21.230000000000018,73,75,11.83,AU,1706980747
214,posto fiscal rolim de moura,-13.0833,-62.2667,30.680000000000007,64,26,1.56,BR,1706980603
215,bathsheba,13.2167,-59.5167,29.340000000000032,70,20,5.66,BB,1706980816
216,raduzhnyy,62.0961,77.475,-18.099999999999966,100,88,2.45,RU,1706980816
217,khandyga,62.6667,135.6,-42.579999999999984,100,72,1.07,RU,1706980663
218,rongelap,11.1635,166.8941,26.450000000000045,82,21,9.39,MH,1706980816
219,weinzierl bei krems,48.4,15.6,11.010000000000048,76,72,6.9,AT,1706980816
220,kedrovyy,56.1667,91.8167,-17.769999999999982,100,97,1.6,RU,1706980816
221,sitka,57.0531,-135.33,0.9399999999999977,80,100,2.57,US,1706980817
222,grand falls-windsor,48.9332,-55.6649,-2.5,91,100,2.68,CA,1706980663
223,poronaysk,49.2167,143.1167,-22.279999999999973,96,9,2.08,RU,1706980817
224,montepuez,-13.1256,38.9997,22.660000000000025,95,100,1.78,MZ,1706980817
225,palafrugell,41.9174,3.1631,17.420000000000016,50,23,3.93,ES,1706980818
226,luderitz,-26.6481,15.1594,21.80000000000001,81,8,6.2,NA,1706980818
227,kas,36.2018,29.6377,12.07000000000005,77,53,1.14,TR,1706980819
228,polyarnyy,69.1989,33.4478,-5.519999999999982,78,98,12.46,RU,1706980697
229,porto novo,6.4965,2.6036,30.900000000000034,42,96,3.78,BJ,1706980819
230,alo,7.4178,6.7371,36.68000000000001,12,58,1.85,NG,1706980820
231,zalesovo,53.9939,84.7431,-8.579999999999984,92,100,4.54,RU,1706980820
232,springs,-26.25,28.4,23.090000000000032,30,94,4.72,ZA,1706980821
233,okhotsk,59.3833,143.3,-24.879999999999967,76,8,7.46,RU,1706980821
234,broken hill,-31.95,141.4333,27.840000000000032,16,98,3.95,AU,1706980782
235,hasaki,35.7333,140.8333,5.220000000000027,64,100,2.98,JP,1706980822
236,murun-kuren,49.6342,100.1625,-18.169999999999987,86,100,0.7,MN,1706980823
237,podgornoye,51.735,39.1496,0.12000000000000455,93,100,5.0,RU,1706980824
238,kirakira,-10.4544,161.9205,27.0,83,97,4.35,SB,1706980824
239,tamanrasset,22.785,5.5228,18.950000000000045,9,0,8.23,DZ,1706980825
240,colares,38.7992,-9.4469,18.55000000000001,71,0,3.58,PT,1706980825
241,crane,31.3974,-102.3501,11.980000000000018,37,0,14.5,US,1706980826
242,borda da mata,-22.2742,-46.1653,26.840000000000032,52,100,1.83,BR,1706980826
243,mount pearl,47.5166,-52.7813,-1.6899999999999977,86,81,5.81,CA,1706980737
244,aasiaat,68.7098,-52.8699,-30.309999999999974,97,40,2.58,GL,1706980827
245,tolanaro,-25.0319,46.9987,24.28000000000003,80,19,6.95,MG,1706980827
246,port hedland,-20.3167,118.5667,28.03000000000003,83,60,10.29,AU,1706980828
247,nantucket,41.2835,-70.0995,0.08000000000004093,73,100,12.31,US,1706980828
248,lazaro cardenas,17.9583,-102.2,26.77000000000004,62,4,1.82,MX,1706980570
249,chapaev,50.2,51.1667,-3.7799999999999727,90,77,6.29,KZ,1706980569
250,zelenoborskiy,66.845,32.3622,-5.639999999999986,95,100,6.92,RU,1706980830
251,zakynthos,37.7914,20.8953,11.470000000000027,82,20,0.0,GR,1706980830
252,tura,25.5198,90.2201,13.150000000000034,33,0,1.7,IN,1706980831
253,arraial do cabo,-22.9661,-42.0278,30.980000000000018,74,75,8.75,BR,1706980831
254,sapele,5.8941,5.6767,37.07000000000005,15,74,0.93,NG,1706980832
255,bundaberg,-24.85,152.35,22.900000000000034,97,5,0.45,AU,1706980833
256,vegreville,53.5001,-112.0518,1.3000000000000114,93,100,5.66,CA,1706980833
257,ceres,37.5949,-120.9577,10.020000000000039,93,0,2.06,US,1706980709
258,al ghayzah,16.2079,52.176,25.160000000000025,75,0,3.66,YE,1706980834
259,rio preto da eva,-2.6994,-59.6997,33.910000000000025,48,53,2.11,BR,1706980834
260,saldanha,-33.0117,17.9442,29.03000000000003,77,87,1.71,ZA,1706980550
261,tukrah,32.5341,20.5791,13.890000000000043,71,21,2.9,LY,1706980835
262,raja,8.4596,25.678,25.390000000000043,17,51,2.13,SS,1706980835
263,ciudad lazaro cardenas,17.9583,-102.2,26.77000000000004,62,4,1.82,MX,1706980739
264,rachitoasa,46.4333,27.3667,7.010000000000048,71,95,2.52,RO,1706980836
265,srandakan,-7.9386,110.2506,25.620000000000005,87,97,2.37,ID,1706980837
266,inongo,-1.95,18.2667,24.920000000000016,77,87,2.05,CD,1706980837
267,xinyuan,37.3,99.0,-20.00999999999999,92,13,2.19,CN,1706980837
268,santa cruz,-17.8,-63.1667,35.03000000000003,46,20,4.63,BO,1706980837
269,mutsu,41.2894,141.2169,-0.5499999999999545,71,99,5.69,JP,1706980838
270,melito di porto salvo,37.9222,15.7714,14.740000000000009,58,9,5.14,IT,1706980838
271,kaa-khem,51.6833,94.7333,-24.769999999999982,99,100,0.66,RU,1706980839
272,rawson,-43.3002,-65.1023,18.75,28,13,11.42,AR,1706980839
273,moss bluff,30.3027,-93.1907,13.970000000000027,94,75,8.75,US,1706980839
274,cooma,-36.2333,149.1333,14.330000000000041,65,73,0.61,AU,1706980840
275,la'ie,21.6477,-157.9253,21.170000000000016,62,8,4.92,US,1706980840
276,nagqu,31.5,92.0,-12.659999999999968,24,56,1.94,CN,1706980840
277,kassala,15.451,36.4,26.04000000000002,26,27,5.32,SD,1706980841
278,klyuchi,52.2667,79.1667,-5.529999999999973,84,100,7.2,RU,1706980841
279,leava,-14.3,-178.1667,28.730000000000018,76,99,3.41,WF,1706980841
280,tucupita,9.0622,-62.051,35.59000000000003,30,42,3.02,VE,1706980842
281,bel ombre,-4.6167,55.4167,28.910000000000025,79,20,4.12,SC,1706980842
282,hami,42.8,93.45,-4.359999999999957,66,9,2.69,CN,1706980842
283,laibin,23.7,109.2667,11.78000000000003,88,99,4.34,CN,1706980842
284,san fernando de apure,7.8878,-67.4724,37.51000000000005,30,84,1.97,VE,1706980843
285,argungu,12.7433,4.5269,30.450000000000045,11,19,5.6,NG,1706980843
286,sao miguel do araguaia,-13.275,-50.1628,27.04000000000002,73,100,1.84,BR,1706980614
287,arti,56.4234,58.5328,-4.939999999999998,96,100,2.86,RU,1706980843
288,salekhard,66.53,66.6019,-27.039999999999964,100,100,0.31,RU,1706980843
289,sabang,5.8933,95.3214,27.74000000000001,74,59,4.24,ID,1706980844
290,katsuura,35.1333,140.3,8.32000000000005,79,100,3.03,JP,1706980844
291,alvear,-29.0968,-56.5504,36.79000000000002,33,0,3.19,AR,1706980844
292,gniezno,52.5348,17.5826,9.660000000000025,80,100,7.99,PL,1706980844
293,long beach,33.767,-118.1892,15.560000000000002,76,0,2.06,US,1706980844
294,port moresby,-9.4431,147.1797,24.680000000000007,94,20,1.54,PG,1706980844
295,queenstown,-31.8976,26.8753,25.720000000000027,46,92,2.18,ZA,1706980735
296,safford,32.834,-109.7076,9.510000000000048,69,0,10.29,US,1706980845
297,bojnurd,37.4747,57.329,-4.029999999999973,86,20,2.06,IR,1706980845
298,qinggang,46.6833,126.0833,-24.599999999999966,96,9,2.62,CN,1706980845
299,rumphi,-11.0186,33.8575,20.27000000000004,96,99,1.19,MW,1706980846
300,upper grand lagoon,30.1633,-85.7408,21.720000000000027,49,0,3.6,US,1706980846
301,nemuro,43.3236,145.575,-5.519999999999982,69,29,6.36,JP,1706980719
302,vadso,70.0744,29.7487,-2.909999999999968,86,100,9.77,NO,1706980846
303,sipalay,9.75,122.5,24.74000000000001,84,1,2.67,PH,1706980846
304,vila franca do campo,37.7167,-25.4333,18.27000000000004,99,8,4.19,PT,1706980846
305,xichang,27.8964,102.2634,4.990000000000009,80,26,1.07,CN,1706980847
306,yaren,-0.5472,166.916,28.79000000000002,78,100,4.72,NR,1706980847
307,isafjordur,66.0755,-23.124,-4.75,87,100,3.25,IS,1706980847
308,kingston,17.997,-76.7936,29.58000000000004,61,20,2.57,JM,1706980568
309,manokwari,-0.8667,134.0833,25.760000000000048,82,42,1.78,ID,1706980847
310,bonthe,7.5264,-12.505,30.360000000000014,56,0,6.05,SL,1706980848
311,kyren,51.6828,102.1408,-9.46999999999997,79,100,0.89,RU,1706980848
312,avarua,-21.2078,-159.775,26.03000000000003,94,75,3.09,CK,1706980848
313,conception bay south,47.4999,-52.9981,-1.3599999999999568,87,98,6.38,CA,1706980659
314,fayzabad,37.1166,70.58,2.0500000000000114,98,100,1.85,AF,1706980848
315,huarmey,-10.0681,-78.1522,26.110000000000014,76,95,3.86,PE,1706980848
316,mora,11.0461,14.1401,26.77000000000004,14,17,3.11,CM,1706980849
317,sisimiut,66.9395,-53.6735,-19.99999999999997,88,94,2.28,GL,1706980849
318,altar,30.7,-111.8167,12.050000000000011,60,0,0.6,MX,1706980850
319,malaya vishera,58.8454,32.2222,0.34000000000003183,98,100,3.39,RU,1706980850
320,sakakah,29.9697,40.2064,11.760000000000048,47,12,2.67,SA,1706980850
321,kouroussa,10.65,-9.8833,35.700000000000045,12,0,2.09,GN,1706980850
322,solnechnyy,50.7214,136.6319,-27.75999999999999,96,22,1.36,RU,1706980850
323,balabac,7.9868,117.0645,26.850000000000023,77,75,5.37,PH,1706980851
324,sosnovo-ozerskoye,52.5249,111.5418,-31.909999999999968,100,35,1.06,RU,1706980554
325,puerto la cruz,10.2167,-64.6167,28.110000000000014,68,23,3.56,VE,1706980851
326,nagcarlan,14.1333,121.4167,24.78000000000003,95,28,2.07,PH,1706980851
327,paimpol,48.7784,-3.0438,11.400000000000034,85,100,4.75,FR,1706980851
328,sinabang,2.4803,96.3801,26.060000000000002,83,100,4.57,ID,1706980699
329,mabaruma,8.2,-59.7833,32.82000000000005,40,79,3.34,GY,1706980852
330,monts,47.2772,0.6247,10.200000000000045,83,100,1.03,FR,1706980852
331,dien bien phu,21.3833,103.0167,15.980000000000018,50,0,0.83,VN,1706980805
332,dolores,-36.3132,-57.6792,39.920000000000016,14,12,5.43,AR,1706980852
333,san agustin acasaguastlan,14.95,-89.9667,31.170000000000016,46,3,1.47,GT,1706980586
334,nikolayevsk-on-amure,53.1406,140.73,-24.789999999999964,98,21,1.81,RU,1706980852
335,fontanelas,38.8472,-9.4372,17.900000000000034,70,0,1.03,PT,1706980852
336,ada,43.4166,-116.1262,3.0300000000000296,95,100,2.24,US,1706980853
337,callao,-12.0667,-77.15,27.160000000000025,65,0,6.69,PE,1706980853
338,chaohu,31.6,117.8667,0.6000000000000227,93,100,2.58,CN,1706980853
339,khutar,28.2,80.2833,17.840000000000032,34,76,4.95,IN,1706980853
340,champerico,14.3,-91.9167,33.30000000000001,58,3,3.77,GT,1706980853
341,green river,41.5286,-109.4662,1.1000000000000227,83,100,10.26,US,1706980854
342,coquimbo,-29.9533,-71.3436,21.850000000000023,73,40,6.69,CL,1706980854
343,mil'kovo,55.6078,37.7956,-1.4799999999999613,86,100,4.29,RU,1706980854
344,shenjiamen,29.9576,122.298,6.240000000000009,90,100,8.83,CN,1706980627
345,tarauaca,-8.1614,-70.7656,27.230000000000018,87,100,1.72,BR,1706980854
346,lorengau,-2.0226,147.2712,27.54000000000002,78,55,1.56,PG,1706980855
347,abepura,-2.6333,140.5833,23.450000000000045,100,20,1.03,ID,1706980855
348,port alfred,-33.5906,26.891,22.879999999999995,91,37,1.34,ZA,1706980772
349,caleta de carquin,-11.0925,-77.6267,25.75,76,81,4.1,PE,1706980735
350,ahero,-0.1746,34.9163,21.870000000000005,74,95,1.05,KE,1706980855
351,tannum sands,-23.9504,151.3693,24.939999999999998,78,40,2.06,AU,1706980855
352,vernal,40.4555,-109.5287,1.8400000000000318,91,100,0.0,US,1706980697
353,luis correia,-2.8792,-41.6669,32.0,62,75,7.72,BR,1706980855
354,laojunmiao,39.8333,97.7333,-10.139999999999986,72,17,1.33,CN,1706980774
355,sadovoye,47.7764,44.5089,-0.08999999999997499,87,100,5.94,RU,1706980856
356,yeppoon,-23.1333,150.7333,24.879999999999995,73,5,5.2,AU,1706980856
357,kawambwa,-9.7915,29.0791,19.480000000000018,93,99,0.5,ZM,1706980856
358,cill airne,52.05,-9.5167,10.03000000000003,100,100,0.0,IE,1706980856
359,secunda,-26.55,29.1667,22.230000000000018,44,98,3.63,ZA,1706980856
360,key largo,25.0865,-80.4473,23.0,54,46,2.13,US,1706980857
361,kosti,13.1629,32.6635,24.460000000000036,13,15,5.01,SD,1706980857
362,shitanjing,39.2342,106.3439,-4.659999999999968,78,100,2.24,CN,1706980857
363,coahuayana de hidalgo,18.7,-103.6583,27.930000000000007,46,0,1.95,MX,1706980857
364,karpinsk,59.7654,60.0085,-14.370000000000005,96,100,2.97,RU,1706980857
365,kisangani,0.5167,25.2,30.090000000000032,38,89,0.52,CD,1706980857
366,sao gotardo,-19.3111,-46.0489,27.010000000000048,58,94,2.73,BR,1706980858
367,acarau,-2.8856,-40.12,30.640000000000043,61,81,7.94,BR,1706980858
368,novaya ladoga,60.1025,32.3019,0.07000000000005002,98,100,3.73,RU,1706980858
369,naha,26.2125,127.6811,23.379999999999995,89,75,4.63,JP,1706980858
370,al kharijah,25.4514,30.5464,13.140000000000043,30,0,4.12,EG,1706980858
371,gilgit,35.9221,74.3087,0.32000000000005,76,81,0.85,PK,1706980858
372,spassk-ryazanskiy,54.4072,40.3806,-4.17999999999995,96,100,4.41,RU,1706980859
373,aripuana,-9.1667,-60.6333,27.650000000000034,82,100,1.11,BR,1706980859
374,zheleznogorsk,52.331,35.3711,0.3900000000000432,98,100,6.02,RU,1706980859
375,goz beida,13.95,20.55,25.350000000000023,15,13,4.08,TD,1706980859
376,aswan,24.0934,32.907,15.520000000000039,29,9,3.95,EG,1706980859
377,america dourada,-11.4553,-41.4361,30.439999999999998,35,67,4.35,BR,1706980859
378,pocone,-16.2567,-56.6228,32.450000000000045,44,100,4.18,BR,1706980859
379,rio grande,-32.035,-52.0986,33.06,63,7,4.38,BR,1706980859
380,desaguadero,-16.5656,-69.0417,14.78000000000003,43,46,2.65,PE,1706980860
381,sur,22.5667,59.5289,22.260000000000048,75,55,5.52,OM,1706980860
382,ta`u,-14.2336,-169.5144,27.900000000000034,81,100,4.45,AS,1706980860
383,lishui,28.4604,119.9103,7.020000000000039,93,100,1.57,CN,1706980860
384,gonabad,34.3529,58.6837,3.2100000000000364,60,16,1.49,IR,1706980860
385,machico,32.7,-16.7667,20.400000000000034,79,40,3.09,PT,1706980687
386,saint-pierre,-21.3393,55.4781,24.82000000000005,73,0,6.17,RE,1706980861
387,nyakahanga,-1.6033,31.1414,17.410000000000025,84,65,1.02,TZ,1706980861
388,constantia,44.1833,28.65,4.3799999999999955,70,52,5.25,RO,1706980751
389,bei'an,24.5399,109.533,8.939999999999998,90,100,3.07,CN,1706980861
390,deqen,29.9618,90.7188,-6.239999999999952,34,73,1.57,CN,1706980861
391,hudiksvall,61.729,17.1036,1.0300000000000296,70,70,5.69,SE,1706980861
392,saint-louis,16.3333,-15.0,34.04000000000002,7,80,5.12,SN,1706980862
393,yakeshi,49.2833,120.7333,-35.369999999999976,100,91,1.04,CN,1706980862
394,karratha,-20.7377,116.8463,27.400000000000034,74,34,9.76,AU,1706980735
395,monteiro,-7.8894,-37.12,33.06,31,99,5.43,BR,1706980636
396,rio gallegos,-51.6226,-69.2181,16.03000000000003,36,0,10.29,AR,1706980863
397,myrina,39.8797,25.0742,6.580000000000041,76,20,0.0,GR,1706980863
398,villa independencia,-31.4559,-64.5132,40.05000000000001,29,3,2.24,AR,1706980863
399,kargasok,59.0556,80.8572,-15.579999999999984,98,89,3.13,RU,1706980863
400,tsiombe,-25.3,45.4833,24.060000000000002,75,23,7.7,MG,1706980761
401,kapa'a,22.0752,-159.319,21.180000000000007,61,75,11.32,US,1706980863
402,sao vicente,-23.9631,-46.3919,31.100000000000023,60,75,1.54,BR,1706980864
403,sechura,-5.5569,-80.8222,28.77000000000004,61,86,3.77,PE,1706980864
404,pathein,16.7833,94.7333,21.189999999999998,76,2,3.86,MM,1706980864
405,guerrero negro,27.9769,-114.0611,16.629999999999995,57,0,6.82,MX,1706980864
406,bulungu,-4.55,18.6,27.220000000000027,67,60,0.4,CD,1706980864
407,alesund,62.4723,6.1549,4.6299999999999955,55,75,14.4,NO,1706980752
408,howrah,22.5892,88.3103,23.939999999999998,68,0,1.54,IN,1706980865
409,preobrazheniye,42.9019,133.9064,-10.879999999999995,62,0,4.38,RU,1706980767
410,dikhil,11.5,42.1667,27.390000000000043,48,75,3.79,DJ,1706980865
411,prince rupert,54.3161,-130.3201,1.830000000000041,86,75,4.63,CA,1706980866
412,imbituba,-28.24,-48.6703,26.03000000000003,65,0,6.51,BR,1706980866
413,jinghong,21.991,100.7341,15.910000000000025,58,4,1.81,CN,1706980866
414,port saint john's,-31.6229,29.5448,25.930000000000007,85,98,6.63,ZA,1706980866
415,guantanamo,20.1444,-75.2092,27.760000000000048,47,8,3.21,CU,1706980866
416,birao,10.2849,22.7882,25.620000000000005,13,67,3.09,CF,1706980867
417,dudinka,69.4058,86.1778,-14.069999999999993,94,100,5.36,RU,1706980867
418,el porvenir,13.7617,-87.3458,27.629999999999995,44,3,3.51,HN,1706980867
419,fray luis beltran,-39.3167,-65.7667,28.660000000000025,15,10,5.75,AR,1706980867
420,oriximina,-1.7656,-55.8661,31.950000000000045,56,82,2.99,BR,1706980868
421,boca do acre,-8.7522,-67.3978,29.78000000000003,70,95,0.79,BR,1706980868
422,sinjai,-5.1241,120.253,24.730000000000018,89,100,1.81,ID,1706980868
423,san antonio de pale,-1.4014,5.6325,28.57000000000005,73,52,3.77,GQ,1706980868
424,kant,27.8,79.8,16.74000000000001,38,96,4.04,IN,1706980868
425,kloulklubed,7.0419,134.2556,26.28000000000003,80,14,10.14,PW,1706980869
426,cestos city,5.46,-9.5828,29.52000000000004,71,100,4.58,LR,1706980835
427,puerto aysen,-45.4,-72.7,19.30000000000001,33,76,1.73,CL,1706980869
428,saint-francois,46.4154,3.9054,5.689999999999998,94,100,1.03,FR,1706980869
429,bodo,67.28,14.405,0.020000000000038654,69,75,4.63,NO,1706980869
430,salinopolis,-0.6136,-47.3561,29.120000000000005,67,76,3.8,BR,1706980870
431,puerto armuelles,8.2833,-82.8667,30.090000000000032,78,36,0.45,PA,1706980870
432,okanagan,50.3639,-119.35,3.0400000000000205,94,98,0.79,CA,1706980870
433,greenville,35.6127,-77.3663,9.520000000000039,54,0,4.12,US,1706980617
434,fort st. john,56.2499,-120.8529,-10.060000000000002,79,20,2.57,CA,1706980786
435,flying fish cove,-10.4217,105.6791,23.82000000000005,94,40,0.0,CX,1706980871
436,luganville,-15.5333,167.1667,26.600000000000023,86,91,0.66,VU,1706980871
437,nuriootpa,-34.4833,139.0,23.689999999999998,43,0,3.21,AU,1706980871
438,dalbandin,28.8947,64.4101,15.260000000000048,24,43,7.18,PK,1706980872
439,taco pozo,-25.6167,-63.2833,43.76000000000005,14,0,4.41,AR,1706980872
440,bageshwar,29.85,79.7667,8.990000000000009,54,49,1.75,IN,1706980872
441,remire-montjoly,4.9167,-52.2667,32.02000000000004,62,0,4.12,GF,1706980812
442,nadi,-17.8,177.4167,25.0,88,40,2.57,FJ,1706980872
443,akhtubinsk,48.2795,46.1722,-1.079999999999984,84,84,5.76,RU,1706980873
444,rockport,28.0206,-97.0544,20.010000000000048,78,75,3.09,US,1706980852
445,talnakh,69.4865,88.3972,-14.329999999999984,96,100,4.14,RU,1706980873
446,siocon,7.7061,122.1353,25.33000000000004,83,15,0.53,PH,1706980873
447,taft,31.7471,54.2088,3.9700000000000273,39,0,2.06,IR,1706980873
448,fortuna,40.5982,-124.1573,7.740000000000009,94,20,6.17,US,1706980873
449,kikwit,-5.041,18.8162,27.480000000000018,64,79,1.32,CD,1706980874
450,fale old settlement,-9.3852,-171.2468,28.629999999999995,80,100,8.63,TK,1706980874
451,eenhana,-17.4667,16.3333,27.82000000000005,46,100,1.87,NA,1706980874
452,tomatlan,19.9333,-105.25,27.370000000000005,42,0,1.99,MX,1706980693
453,liberty,31.8335,-81.5004,17.140000000000043,56,100,4.63,US,1706980875
454,sona,45.4388,10.8255,10.75,76,45,0.51,IT,1706980875
455,tonota,-21.4833,27.4833,26.680000000000007,34,2,3.95,BW,1706980876
456,salalah,17.0151,54.0924,25.230000000000018,58,0,1.65,OM,1706980876
457,gulf shores,30.246,-87.7008,19.650000000000034,69,0,4.63,US,1706980877
458,oxkutzkab,20.3,-89.4167,29.180000000000007,47,1,3.73,MX,1706980877
459,waingapu,-9.6567,120.2641,26.730000000000018,87,100,3.4,ID,1706980877
460,kailua-kona,19.6406,-155.9956,20.980000000000018,90,0,14.92,US,1706980878
461,buka,40.8108,69.1986,2.740000000000009,56,100,1.46,UZ,1706980878
462,shiqian,27.5225,108.2281,-0.029999999999972715,97,100,0.57,CN,1706980878
463,rolante,-29.6506,-50.5758,35.370000000000005,31,0,1.7,BR,1706980879
464,katutura,-22.521,17.0557,24.77000000000004,56,96,1.34,NA,1706980880
465,kavieng,-2.5744,150.7967,27.910000000000025,78,94,1.97,PG,1706980881
466,kestel,40.1983,29.2124,4.710000000000036,84,44,0.95,TR,1706980881
467,castillos,-34.1667,-53.8333,31.760000000000048,35,64,4.9,UY,1706980655
468,bonadelle ranchos-madera ranchos,36.9847,-119.8746,10.050000000000011,84,82,1.0,US,1706980882
469,san julian,21.0167,-102.1667,16.79000000000002,32,0,7.39,MX,1706980882
470,haci zeynalabdin,40.6233,49.5586,6.080000000000041,73,92,5.4,AZ,1706980883
471,aracatuba,-21.2089,-50.4328,29.100000000000023,54,75,3.09,BR,1706980884
472,zyryanskoye,56.8306,86.6258,-13.989999999999952,97,83,2.57,RU,1706980886
473,zhangye,38.9342,100.4517,-5.669999999999959,69,97,2.59,CN,1706980887
474,regente feijo,-22.2214,-51.3028,31.600000000000023,43,40,4.12,BR,1706980887
475,argo,37.6333,22.7333,7.660000000000025,65,4,0.38,GR,1706980888
476,douentza,14.9951,-2.9517,30.640000000000043,8,0,4.35,ML,1706980888
477,puerto lempira,15.2667,-83.7667,28.55000000000001,53,1,3.57,HN,1706980889
478,okha,53.5739,142.9478,-23.119999999999976,89,8,5.93,RU,1706980890
479,vilyuchinsk,52.9306,158.4028,-18.849999999999966,83,21,4.67,RU,1706980760
480,dauphin,51.1494,-100.0502,1.080000000000041,100,100,1.54,CA,1706980890
481,corner brook,48.9667,-57.9484,-4.909999999999968,89,100,3.31,CA,1706980891
482,oranjemund,-28.55,16.4333,21.58000000000004,86,38,1.75,NA,1706980891
483,ovalle,-30.5983,-71.2003,29.900000000000034,36,51,3.66,CL,1706980892
484,padang,-0.9492,100.3543,24.03000000000003,91,100,1.21,ID,1706980892
485,ordubad,38.9059,46.0234,-1.2799999999999727,69,54,2.25,AZ,1706980893
486,poltavka,54.3663,71.7632,-6.67999999999995,97,100,2.31,RU,1706980893
487,alderetes,-26.8167,-65.1333,37.950000000000045,39,20,2.57,AR,1706980893
488,trevelin,-43.0858,-71.4639,20.710000000000036,30,53,0.9,AR,1706980894
489,levuka,50.1834,-105.4011,1.8400000000000318,77,10,3.6,CA,1706980894
490,las margaritas,16.3167,-91.9833,23.439999999999998,36,3,5.84,MX,1706980895
491,yaiza,28.9633,-13.7631,18.870000000000005,52,0,3.6,ES,1706980652
492,praia da vitoria,38.7333,-27.0667,18.200000000000045,82,40,4.69,PT,1706980895
493,enterprise,36.0252,-115.2419,10.100000000000023,58,20,4.63,US,1706980896
494,umm kaddadah,13.6017,26.6876,19.200000000000045,19,44,5.71,SD,1706980896
495,cockburn town,21.4612,-71.1419,23.07000000000005,62,0,3.04,TC,1706980896
496,ar rahad,12.7167,30.65,22.07000000000005,14,44,5.04,SD,1706980896
497,chipiona,36.7366,-6.437,18.120000000000005,52,0,6.69,ES,1706980896
498,pohang,36.0322,129.365,5.5,88,100,1.57,KR,1706980897
499,bure,10.7,37.0667,17.160000000000025,58,55,2.37,ET,1706980897
500,ilhabela,-23.7781,-45.3581,26.05000000000001,79,100,1.92,BR,1706980897
501,sarikei,2.1167,111.5167,23.710000000000036,97,96,0.58,MY,1706980897
502,hithadhoo,-0.6,73.0833,28.510000000000048,77,100,3.16,MV,1706980898
503,nelson bay,-32.7167,152.15,23.33000000000004,89,6,3.58,AU,1706980898
504,puerto deseado,-47.7503,-65.8938,13.450000000000045,48,25,11.96,AR,1706980898
505,severo-yeniseyskiy,60.3725,93.0408,-15.239999999999952,97,100,0.89,RU,1706980898
506,trail,49.0998,-117.7022,8.870000000000005,87,100,0.62,CA,1706980899
507,tanout,14.9709,8.8879,22.260000000000048,11,35,6.48,NE,1706980899
508,novyy urgal,51.0736,132.5642,-32.309999999999974,100,96,0.71,RU,1706980899
509,richfield,44.8833,-93.283,1.660000000000025,85,100,5.66,US,1706980899
510,haikou,20.0458,110.3417,21.07000000000005,100,75,1.0,CN,1706980899
511,yamba,-5.9,22.3,24.850000000000023,76,59,0.48,CD,1706980900
512,howard springs,-12.497,131.047,27.950000000000045,94,98,3.45,AU,1706980900
513,badger,64.8,-147.5333,-38.68999999999997,59,100,0.0,US,1706980900
514,malanje,-9.5402,16.341,21.78000000000003,90,92,1.63,AO,1706980900
515,bridgewater,44.3835,-64.5155,-3.17999999999995,92,100,10.8,CA,1706980900
516,las palmas,28.4204,-14.0131,19.439999999999998,40,0,3.6,ES,1706980901
517,makhambet,47.6667,51.5833,-2.17999999999995,87,13,5.33,KZ,1706980901
518,labrador city,52.9463,-66.9114,-15.049999999999955,51,40,0.0,CA,1706980901
519,puerto barrios,15.7167,-88.6,28.08000000000004,69,0,0.0,GT,1706980901
520,udomlya,57.8794,34.9925,-2.609999999999957,96,100,3.76,RU,1706980901
521,saidpur,25.7777,88.8917,16.210000000000036,32,0,1.0,BD,1706980902
522,saki,8.6667,3.3833,34.200000000000045,13,27,2.11,NG,1706980902
523,sydney mines,46.2367,-60.2177,-0.40999999999996817,97,100,10.8,CA,1706980902
524,zacharo,37.4833,21.65,11.720000000000027,80,14,0.74,GR,1706980902
525,mul,20.0667,79.6667,22.58000000000004,32,0,1.77,IN,1706980902
526,acapulco de juarez,16.8634,-99.8901,28.900000000000034,65,40,4.63,MX,1706980665
527,monrovia,6.3005,-10.7969,29.180000000000007,71,100,5.36,LR,1706980903
528,fabens,31.5023,-106.1586,8.970000000000027,46,5,14.52,US,1706980903
529,korsakov,46.6328,142.7813,-26.089999999999975,85,23,3.14,RU,1706980903
530,ojinaga,29.5667,-104.4167,13.53000000000003,50,40,4.12,MX,1706980903
531,ashburton,-37.8626,145.0794,17.74000000000001,79,0,1.22,AU,1706980904
532,orchard homes,46.8633,-114.0484,3.660000000000025,96,100,0.0,US,1706980904
533,ploudalmezeau,48.5333,-4.65,10.710000000000036,93,100,1.54,FR,1706980904
534,talavera,15.6167,120.9333,22.05000000000001,88,12,1.39,PH,1706980383
535,amneville,49.2575,6.142,9.470000000000027,93,100,4.46,FR,1706980639
536,karachi,24.9056,67.0822,18.900000000000034,94,100,4.12,PK,1706980905
537,sariaya,13.9644,121.53,22.07000000000005,96,17,2.5,PH,1706980905
538,vydrino,51.485,104.8461,-15.079999999999984,96,100,4.32,RU,1706980905
539,melfort,52.8667,-104.6177,2.07000000000005,87,39,3.6,CA,1706980905
540,manaure,11.7751,-72.4445,28.920000000000016,68,55,4.88,CO,1706980905
541,srednebelaya,50.6594,128.0106,-20.789999999999964,99,26,0.96,RU,1706980906
542,saraqib,35.8645,36.8059,8.379999999999995,85,68,1.64,SY,1706980906
543,vel'sk,61.0701,42.0983,-14.289999999999964,99,81,1.34,RU,1706980906
544,simanggang,1.2472,111.4528,25.99000000000001,94,100,0.0,MY,1706980906
545,libertad,8.9442,125.5019,23.129999999999995,96,59,1.82,PH,1706980906
546,lamarque,-39.423,-65.7021,28.590000000000032,15,8,5.8,AR,1706980906
547,autazes,-3.5797,-59.1306,33.75,48,80,2.43,BR,1706980907
548,soro,21.2881,86.6858,20.83000000000004,71,0,1.41,IN,1706980907
549,quesnel,52.9999,-122.5029,-2.7199999999999704,54,0,3.6,CA,1706980907
550,lensk,60.7253,114.9278,-28.519999999999982,100,85,1.65,RU,1706980907
551,moose jaw,50.4001,-105.5344,2.140000000000043,93,9,3.6,CA,1706980908
552,loango,-4.6719,11.8312,27.49000000000001,78,94,4.32,CG,1706980908
553,bikenibeu village,1.3673,173.1241,28.57000000000005,77,100,7.34,KI,1706980908
554,madingou,-4.1536,13.55,28.24000000000001,79,100,1.25,CG,1706980909
555,serhetabat,35.2799,62.3438,0.8700000000000045,93,91,2.39,TM,1706980909
556,fallon,39.4735,-118.7774,2.730000000000018,66,40,2.06,US,1706980909
557,pisco,-13.7,-76.2167,26.680000000000007,73,75,4.12,PE,1706980909
558,mugia,43.1041,-9.2179,17.730000000000018,79,9,1.19,ES,1706980698
559,kodinsk,58.6881,99.1844,-21.419999999999987,100,100,0.94,RU,1706980909
560,wytheville,36.9484,-81.0848,9.220000000000027,57,3,0.45,US,1706980865
561,port douglas,-16.4833,145.4667,27.120000000000005,83,100,1.43,AU,1706980910
562,namdrik,5.5994,168.1028,27.560000000000002,83,100,8.23,MH,1706980910
563,urengoy,65.9667,78.3667,-16.560000000000002,96,100,2.3,RU,1706980910
564,general acha,-37.377,-64.6043,33.09000000000003,15,40,7.04,AR,1706980910
565,sanctuary point,-35.1114,150.629,22.640000000000043,87,77,3.13,AU,1706980911
566,kisujszallas,47.2167,20.7667,10.010000000000048,76,64,6.81,HU,1706980911
567,suileng,47.25,127.0833,-30.18999999999997,100,52,1.52,CN,1706980911
568,westport,41.1415,-73.3579,5.090000000000032,51,0,5.66,US,1706980911
569,lisakovsk,52.5369,62.4936,-5.019999999999982,93,100,5.48,KZ,1706980911
570,guerrero,17.6667,-100.0,25.230000000000018,37,1,1.03,MX,1706980912
571,tabou,4.423,-7.3528,29.620000000000005,69,100,4.22,CI,1706980754
572,birobidzhan,48.8,132.95,-26.20999999999998,96,5,1.71,RU,1706980912
573,bardai,11.65,7.2333,27.129999999999995,11,4,5.55,NG,1706980912
574,uglovoye,43.3289,132.0917,-13.379999999999995,65,1,3.0,RU,1706980912
575,kertih,4.5141,103.4483,24.010000000000048,94,43,0.0,MY,1706980913
576,pontianak,-0.0333,109.3333,24.99000000000001,100,40,1.54,ID,1706980913
577,delligsen,51.9412,9.8027,11.660000000000025,91,100,6.39,DE,1706980913
578,mto wa mbu,-3.35,35.85,23.74000000000001,71,99,0.21,TZ,1706980913
579,sikandra rao,27.7,78.4,17.480000000000018,37,99,2.47,IN,1706980913
580,port shepstone,-30.7414,30.455,24.610000000000014,86,97,9.61,ZA,1706980914
581,pemangkat,1.1667,108.9667,25.710000000000036,86,99,2.88,ID,1706980914
