City_ID,City,Lat,Lng,Max Temp,Humidity,Cloudiness,Wind Speed,Country,Date
0,stanley,54.868,-1.6985,10.430000000000007,82,75,10.8,GB,1707181382
1,papatowai,-46.5619,169.4708,17.55000000000001,80,100,2.59,NZ,1707181311
2,north bend,43.4065,-124.2243,9.590000000000032,93,100,2.06,US,1707181476
3,menongue,-14.6585,17.691,17.560000000000002,95,100,1.27,AO,1707181072
4,cidreira,-30.1811,-50.2056,24.150000000000034,87,100,5.19,BR,1707181357
5,hermanus,-34.4187,19.2345,21.560000000000002,88,100,2.25,ZA,1707181304
6,sitka,57.0531,-135.33,3.9399999999999977,81,75,0.0,US,1707181477
7,ust-tsilma,65.441,52.1498,-33.54999999999998,100,100,0.45,RU,1707180847
8,port-aux-francais,-49.35,70.2167,6.170000000000016,74,100,12.83,TF,1707181477
9,lebu,-37.6167,-73.65,16.53000000000003,93,98,2.25,CL,1707181308
10,tura,25.5198,90.2201,14.390000000000043,61,82,1.18,IN,1707181353
11,susuman,62.7833,148.1667,-28.899999999999977,89,100,1.34,RU,1707181477
12,west island,-12.1568,96.8225,27.99000000000001,83,40,3.09,CC,1707181477
13,dudinka,69.4058,86.1778,-25.17999999999998,97,59,1.79,RU,1707181478
14,grytviken,-54.2811,-36.5092,6.07000000000005,84,20,7.32,GS,1707181478
15,waitangi,-43.9535,-176.5597,19.340000000000032,86,90,8.22,NZ,1707181478
16,bodaybo,57.8506,114.1933,-11.389999999999986,92,100,0.75,RU,1707181478
17,rabak,13.1809,32.74,20.55000000000001,20,69,6.44,SD,1707181478
18,puerto ayora,-0.7393,-90.3518,25.860000000000014,95,73,1.34,EC,1707181479
19,port elizabeth,-33.918,25.5701,22.28000000000003,93,100,4.12,ZA,1707181479
20,mermoz boabab,14.7065,-17.4758,24.310000000000002,83,0,4.12,SN,1707181479
21,east ballina,-28.8667,153.5833,31.560000000000002,62,17,4.71,AU,1707181068
22,bridgewater,44.3835,-64.5155,0.82000000000005,83,95,4.63,CA,1707181100
23,neiafu,-18.65,-173.9833,27.53000000000003,72,26,6.53,TO,1707181285
24,telimele,10.9167,-13.3333,20.610000000000014,62,0,0.48,GN,1707181479
25,vila velha,-20.3297,-40.2925,26.970000000000027,90,40,3.6,BR,1707181480
26,villa gesell,-37.2639,-56.973,22.25,77,94,7.81,AR,1707181480
27,verkhniy rohachyk,47.2505,34.338,2.7900000000000205,69,26,8.73,UA,1707181480
28,katsuura,35.1333,140.3,5.010000000000048,96,100,8.31,JP,1707181480
29,hawaiian paradise park,19.5933,-154.9731,23.910000000000025,73,75,2.06,US,1707181480
30,eyl,7.9803,49.8164,23.980000000000018,72,69,5.4,SO,1707181282
31,albany,42.6001,-73.9662,-1.4699999999999704,49,1,0.89,US,1707181481
32,nsanje,-16.92,35.262,24.370000000000005,88,57,0.47,MW,1707181481
33,adamstown,-25.066,-130.1015,24.260000000000048,81,100,5.07,PN,1707181481
34,iskateley,67.6803,53.1512,-18.879999999999967,97,100,1.79,RU,1707181481
35,craig,40.5153,-107.5464,1.7900000000000205,87,100,2.84,US,1707181241
36,klyuchi,52.2667,79.1667,-9.25,90,92,4.17,RU,1707181482
37,atafu village,-8.5421,-172.5159,28.100000000000023,82,100,13.81,TK,1707181482
38,pizarro,4.9533,-77.366,26.120000000000005,84,52,1.75,CO,1707181482
39,carnarvon,-24.8667,113.6333,30.49000000000001,30,8,10.99,AU,1707181218
40,demidov,55.2706,31.515,-7.509999999999991,97,82,3.23,RU,1707181482
41,bredasdorp,-34.5322,20.0403,21.110000000000014,81,100,1.49,ZA,1707181482
42,embarcacion,-23.209,-64.096,28.980000000000018,52,100,3.11,AR,1707181483
43,kruisfontein,-34.0033,24.7314,21.05000000000001,90,50,4.1,ZA,1707181328
44,brezoi,45.338,24.2486,6.830000000000041,75,100,2.99,RO,1707181483
45,taoudenni,22.6783,-3.9836,18.850000000000023,13,100,5.01,ML,1707181090
46,la passe,45.5549,-0.8967,7.210000000000036,87,100,2.6,FR,1707181483
47,broken hill,-31.95,141.4333,22.160000000000025,32,5,9.67,AU,1707181483
48,puerto carreno,6.189,-67.4859,25.99000000000001,89,40,1.03,CO,1707181344
49,ketchikan,55.3422,-131.6461,3.990000000000009,81,20,3.6,US,1707181484
50,ushuaia,-54.8,-68.3,9.810000000000002,62,0,5.66,AR,1707181484
51,punta arenas,-53.15,-70.9167,12.060000000000002,54,75,9.77,CL,1707181484
52,ixtapa,20.7,-105.2,24.57000000000005,75,0,1.34,MX,1707181325
53,puerto natales,-51.7236,-72.4875,9.220000000000027,75,100,0.7,CL,1707181484
54,bethel,41.3712,-73.414,1.6299999999999955,48,0,0.45,US,1707181330
55,geraldton,-28.7667,114.6,28.230000000000018,21,31,11.83,AU,1707181484
56,qaqortoq,60.7167,-46.0333,-21.379999999999967,70,0,2.79,GL,1707181309
57,talnakh,69.4865,88.3972,-24.829999999999984,89,33,2.42,RU,1707181485
58,qui nhon,13.7667,109.2333,23.930000000000007,83,22,2.13,VN,1707181485
59,ust-nera,64.5667,143.2,-26.369999999999976,84,98,0.76,RU,1707181485
60,east london,-33.0153,27.9116,22.480000000000018,84,6,1.95,ZA,1707181380
61,olinda,-8.0089,-34.8553,28.850000000000023,74,40,4.12,BR,1707181395
62,blackmans bay,-43.0167,147.3167,18.74000000000001,44,79,0.89,AU,1707181485
63,port lincoln,-34.7333,135.8667,18.840000000000032,50,0,5.36,AU,1707181462
64,talalayivka,50.9578,31.9209,-0.6699999999999591,81,96,6.42,UA,1707181486
65,badger,64.8,-147.5333,-14.049999999999955,79,40,0.0,US,1707181486
66,wailua homesteads,22.0669,-159.378,25.24000000000001,68,100,9.26,US,1707181486
67,udachny,66.4167,112.4,-23.639999999999986,76,100,1.52,RU,1707181323
68,alice springs,-23.7,133.8833,29.010000000000048,27,1,7.2,AU,1707181361
69,bom jesus,-9.0744,-44.3586,24.390000000000043,67,97,1.06,BR,1707181106
70,salmon arm,50.6998,-119.3024,1.6200000000000045,80,100,0.0,CA,1707181487
71,port macquarie,-31.4333,152.9167,31.610000000000014,63,12,4.82,AU,1707181487
72,outjo,-20.1167,16.15,21.230000000000018,75,93,2.52,NA,1707181487
73,gadzhiyevo,69.2551,33.3362,-19.909999999999968,100,100,3.59,RU,1707181352
74,bulayevo,54.9056,70.4439,0.3900000000000432,92,100,7.72,KZ,1707181487
75,saint-denis,48.9167,2.3333,8.75,90,100,7.2,FR,1707181487
76,naze,28.3667,129.4833,16.510000000000048,63,4,5.31,JP,1707181488
77,georgetown,5.4112,100.3354,27.75,86,20,1.03,MY,1707181232
78,dubbo,-32.25,148.6167,23.07000000000005,94,75,5.66,AU,1707181488
79,kristiansund,63.1115,7.732,-2.6399999999999864,93,100,0.0,NO,1707181045
80,quepos,9.4236,-84.1652,25.980000000000018,84,28,1.69,CR,1707181330
81,olonkinbyen,70.9221,-8.7187,-1.6599999999999682,70,77,6.86,SJ,1707181488
82,sudislavl',57.8817,41.7083,-14.389999999999986,98,100,1.41,RU,1707181488
83,yellowknife,62.456,-114.3525,-23.70999999999998,77,20,0.0,CA,1707181489
84,bilibino,68.0546,166.4372,-33.18999999999997,99,100,0.87,RU,1707181489
85,alo,7.4178,6.7371,25.28000000000003,18,100,1.52,NG,1707181489
86,ijui,-28.3878,-53.9147,24.610000000000014,77,99,3.42,BR,1707181474
87,margaret river,-33.95,115.0667,19.129999999999995,49,10,4.27,AU,1707181229
88,remire-montjoly,4.9167,-52.2667,27.02000000000004,89,40,1.03,GF,1707181377
89,ilulissat,69.2167,-51.1,-21.98999999999998,54,10,2.57,GL,1707181489
90,sawakin,19.1059,37.3321,21.210000000000036,63,100,5.25,SD,1707181490
91,college,64.8569,-147.8028,-14.0,77,40,0.0,US,1707181490
92,uturoa,-16.7333,-151.4333,27.120000000000005,87,100,4.68,PF,1707181490
93,egilsstadir,65.2653,-14.3948,-10.049999999999955,73,0,2.06,IS,1707181490
94,utrik,11.2278,169.8474,26.410000000000025,82,38,8.94,MH,1707181362
95,nova sintra,14.8667,-24.7167,20.970000000000027,68,0,7.53,CV,1707181490
96,tchibanga,-2.85,11.0333,21.670000000000016,94,100,1.39,GA,1707181490
97,port alberni,49.2413,-124.8028,6.590000000000032,95,100,0.78,CA,1707181249
98,st. john's,47.5649,-52.7093,1.5500000000000114,97,100,9.83,CA,1707181423
99,dausa,26.8833,76.3333,11.310000000000002,56,100,2.45,IN,1707181491
100,vadso,70.0744,29.7487,-8.909999999999968,79,40,4.63,NO,1707181491
101,mount gambier,-37.8333,140.7667,19.82000000000005,39,0,4.03,AU,1707181491
102,kodiak,57.79,-152.4072,2.730000000000018,75,0,8.23,US,1707181492
103,moletai,55.2333,25.4167,-3.17999999999995,93,100,3.66,LT,1707181492
104,longyearbyen,78.2186,15.6401,-4.089999999999975,74,40,7.2,SJ,1707181400
105,shizukuishi,39.6833,140.9833,-0.5699999999999932,65,100,2.7,JP,1707181492
106,vila do maio,15.1333,-23.2167,22.439999999999998,61,0,6.49,CV,1707181492
107,mukalla,14.5425,49.1242,22.25,78,6,1.43,YE,1707180777
108,ribeira grande,38.5167,-28.7,17.100000000000023,92,100,7.15,PT,1707181492
109,saipan,15.1355,145.701,29.390000000000043,58,40,8.23,MP,1707181493
110,fortuna,40.5982,-124.1573,9.960000000000036,97,75,0.0,US,1707181071
111,tamanrasset,22.785,5.5228,9.950000000000045,23,0,5.66,DZ,1707181493
112,savannah,32.0835,-81.0998,11.090000000000032,87,100,4.12,US,1707181218
113,nouadhibou,20.931,-17.0347,20.99000000000001,40,0,4.63,MR,1707181286
114,ancud,-41.8697,-73.8203,14.470000000000027,93,100,2.79,CL,1707181226
115,garbahaarrey,3.3289,42.2209,26.730000000000018,54,94,3.58,SO,1707181494
116,karatuzskoye,53.6072,92.8667,-18.119999999999976,93,48,1.34,RU,1707181494
117,venkatagiri,13.9667,79.5833,20.260000000000048,91,0,0.81,IN,1707181494
118,qulsary,46.9531,54.0198,1.3500000000000227,82,100,5.81,KZ,1707181494
119,fale old settlement,-9.3852,-171.2468,28.689999999999998,81,100,12.46,TK,1707181494
120,homer,59.6425,-151.5483,1.5400000000000205,89,100,4.17,US,1707181215
121,kirensk,57.7853,108.1119,-7.239999999999952,94,100,4.47,RU,1707181495
122,usakos,-22.0,15.6,25.420000000000016,51,100,0.81,NA,1707181495
123,yaren,-0.5472,166.916,28.920000000000016,74,68,6.65,NR,1707181495
124,dalnerechensk,45.9339,133.7225,-19.70999999999998,99,97,1.89,RU,1707181495
125,fuqing,25.725,119.3794,9.870000000000005,85,100,4.97,CN,1707181495
126,pambujan,12.5642,124.9276,27.04000000000002,78,94,4.95,PH,1707181495
127,whangarei,-35.7317,174.3239,27.410000000000025,42,1,2.47,NZ,1707181495
128,richards bay,-28.783,32.0377,21.82000000000005,90,32,1.09,ZA,1707180823
129,whitehorse,60.7161,-135.0538,-19.569999999999965,92,100,1.54,CA,1707181496
130,kingston,17.997,-76.7936,26.230000000000018,94,75,4.63,JM,1707181357
131,fonte boa,-2.4959,-66.2662,23.850000000000023,97,100,0.78,BR,1707181496
132,edinburgh of the seven seas,-37.0676,-12.3116,15.600000000000023,62,0,0.91,SH,1707181496
133,iqaluit,63.7506,-68.5145,-17.149999999999977,77,75,1.54,CA,1707181313
134,lihue,21.9789,-159.3672,25.58000000000004,67,100,9.26,US,1707181496
135,petropavlovsk-kamchatsky,53.0452,158.6483,-7.529999999999973,74,75,2.68,RU,1707181497
136,keflavik,64.0049,-22.5624,-6.759999999999991,73,75,9.26,IS,1707181352
137,lerwick,60.1545,-1.1494,4.0,96,100,11.49,GB,1707181497
138,san antonio de pale,-1.4014,5.6325,27.74000000000001,75,100,1.54,GQ,1707181497
139,avarua,-21.2078,-159.775,30.03000000000003,74,20,8.75,CK,1707181359
140,murzuq,25.9155,13.9184,9.939999999999998,48,1,3.26,LY,1707181497
141,thayetmyo,19.3167,95.1833,19.920000000000016,45,5,0.36,MM,1707181497
142,invercargill,-46.4,168.35,18.900000000000034,92,100,0.89,NZ,1707181418
143,ta`u,-14.2336,-169.5144,28.260000000000048,75,100,1.86,AS,1707181498
144,yung shue wan,22.2333,114.1167,19.860000000000014,81,100,0.45,HK,1707181374
145,igarka,67.4667,86.5833,-25.98999999999998,97,73,2.61,RU,1707181498
146,kishorganj,24.4333,90.7667,18.07000000000005,54,100,2.66,BD,1707181498
147,kembe,4.6228,21.8865,21.120000000000005,40,31,0.57,CF,1707181071
148,rongelap,11.1635,166.8941,26.55000000000001,82,100,8.94,MH,1707180857
149,mohr,54.3528,9.7167,8.410000000000025,93,100,13.89,DE,1707181498
150,northam,51.0333,-4.2167,11.330000000000041,96,100,10.5,GB,1707181499
151,murun-kuren,49.6342,100.1625,-22.769999999999982,97,95,1.09,MN,1707181499
152,mahina,-17.5065,-149.489,25.870000000000005,89,75,7.2,PF,1707181499
153,birao,10.2849,22.7882,21.53000000000003,17,0,4.48,CF,1707181499
154,el abiodh sidi cheikh,32.893,0.5484,6.810000000000002,47,100,1.72,DZ,1707181499
155,juneau,58.3019,-134.4197,2.0,97,100,1.54,US,1707181381
156,pryamitsyno,51.6561,35.9314,-2.6999999999999886,94,53,5.19,RU,1707181500
157,katsuren-haebaru,26.3369,127.8719,18.430000000000007,63,75,3.6,JP,1707181354
158,panjab,34.388,67.0233,-21.099999999999966,98,48,1.54,AF,1707181500
159,anadyr,64.75,177.4833,-22.71999999999997,77,100,6.0,RU,1707181500
160,tiksi,71.6872,128.8694,-31.94999999999999,97,97,1.56,RU,1707181500
161,manggar,-2.8833,108.2667,26.810000000000002,81,100,2.3,ID,1707181101
162,queenstown,-31.8976,26.8753,17.010000000000048,83,0,0.62,ZA,1707181059
163,vilyuchinsk,52.9306,158.4028,-6.7099999999999795,70,72,2.99,RU,1707181501
164,ambovombe,-25.1667,46.0833,22.420000000000016,91,84,1.81,MG,1707181501
165,cabedelo,-6.9811,-34.8339,28.370000000000005,79,22,4.35,BR,1707181501
166,isla mujeres,21.2311,-86.731,20.090000000000032,65,4,11.44,MX,1707181501
167,ohangaron,40.9064,69.6383,5.080000000000041,46,100,3.74,UZ,1707181501
168,bereznik,62.8551,42.7072,-26.369999999999976,99,81,1.57,RU,1707181502
169,borogontsy,62.6683,131.1683,-36.19999999999999,99,64,0.76,RU,1707181502
170,yuzhno-kurilsk,44.0306,145.8556,-5.899999999999977,60,69,5.75,RU,1707181502
171,hajin,34.6927,40.827,10.25,74,9,3.9,SY,1707181502
172,severo-yeniseyskiy,60.3725,93.0408,-16.899999999999977,99,62,2.24,RU,1707181388
173,novosergiyevka,52.0934,53.6528,-0.5600000000000023,98,100,6.04,RU,1707181503
174,novo aripuana,-5.1206,-60.3797,25.470000000000027,85,55,0.51,BR,1707181503
175,vilyuysk,63.7553,121.6247,-38.329999999999984,100,94,1.34,RU,1707181066
176,ustyuzhna,58.8394,36.4321,-12.310000000000002,97,98,2.08,RU,1707181503
177,polyarnyy,69.1989,33.4478,-19.19999999999999,100,100,3.84,RU,1707181116
178,moral de calatrava,38.7919,-3.5786,9.180000000000007,65,100,1.46,ES,1707181504
179,lugovoy,42.9472,72.7644,-1.3199999999999932,69,99,2.88,KZ,1707181504
180,praia da vitoria,38.7333,-27.0667,18.140000000000043,77,40,8.04,PT,1707181505
181,goure,13.9835,10.2704,16.07000000000005,17,5,6.65,NE,1707181375
182,penza,53.2007,45.0046,-3.1899999999999977,94,100,7.15,RU,1707181505
183,kosh-agach,50.0,88.6667,-23.71999999999997,79,54,0.45,RU,1707181506
184,mezhdurechensk,53.6942,88.0603,-12.149999999999977,96,91,1.45,RU,1707181506
185,tolanaro,-25.0319,46.9987,24.04000000000002,88,75,6.17,MG,1707181506
186,binhe,32.6883,112.8275,-0.67999999999995,76,99,2.58,CN,1707181506
187,constantia,44.1833,28.65,8.379999999999995,78,75,7.38,RO,1707181318
188,funafuti,-8.5243,179.1942,31.0,79,75,10.29,TV,1707181121
189,rio maior,39.3373,-8.9391,12.720000000000027,91,100,0.8,PT,1707181507
190,daru,-9.0763,143.2092,28.49000000000001,80,100,3.57,PG,1707181366
191,el colorado,-26.3081,-59.3729,31.930000000000007,36,31,3.54,AR,1707181507
192,ihosy,-22.4,46.1167,19.710000000000036,98,94,1.85,MG,1707181507
193,jayapura,-2.5333,140.7,30.660000000000025,73,100,3.36,ID,1707181508
194,ola,59.5833,151.2833,-16.029999999999973,77,100,4.51,RU,1707181080
195,afaahiti,-17.75,-149.2833,24.930000000000007,93,100,10.34,PF,1707181508
196,kasongo,-4.45,26.6667,19.390000000000043,99,100,1.45,CD,1707181509
197,luorong,24.4058,109.6086,6.160000000000025,88,100,3.39,CN,1707181509
198,sumbawa besar,-8.5,117.4333,28.30000000000001,72,34,0.11,ID,1707181509
199,port mathurin,-19.6833,63.4167,26.100000000000023,64,93,6.41,MU,1707181309
200,vernon,50.2581,-119.2691,2.090000000000032,88,100,0.51,CA,1707181050
201,oriximina,-1.7656,-55.8661,27.950000000000045,66,100,1.57,BR,1707181510
202,kailua-kona,19.6406,-155.9956,24.170000000000016,79,34,0.45,US,1707181390
203,callao,-12.0667,-77.15,27.160000000000025,65,40,5.66,PE,1707181241
204,yanykurgan,43.915,67.2481,1.8500000000000227,69,98,8.82,KZ,1707181510
205,la ronge,55.1001,-105.2842,-4.859999999999957,80,100,4.63,CA,1707181510
206,colonia,50.9333,6.95,10.03000000000003,77,100,5.66,DE,1707181067
207,codrington,-38.2667,141.9667,18.600000000000023,45,0,5.7,AU,1707181335
208,port alfred,-33.5906,26.891,19.54000000000002,97,50,3.13,ZA,1707181511
209,kapuskasing,49.4169,-82.4331,-2.9499999999999886,93,100,2.57,CA,1707181120
210,hamilton,39.1834,-84.5333,5.800000000000011,75,0,6.69,US,1707181511
211,maxixe,-23.8597,35.3472,23.730000000000018,90,15,0.4,MZ,1707181511
212,tipasa,36.5897,2.4475,15.400000000000034,42,100,4.43,DZ,1707181511
213,tocopilla,-22.092,-70.1979,23.920000000000016,70,0,1.12,CL,1707181067
214,newman,37.3138,-121.0208,13.970000000000027,78,99,1.79,US,1707181122
215,inhambane,-23.865,35.3833,24.260000000000048,88,16,0.47,MZ,1707181512
216,san pedro pochutla,15.7333,-96.4667,26.840000000000032,78,64,1.8,MX,1707181111
217,katpur,21.05,71.7833,22.02000000000004,65,0,3.22,IN,1707181512
218,kapa'a,22.0752,-159.319,25.99000000000001,67,100,9.26,US,1707181512
219,dompu,-8.5356,118.4622,29.25,72,14,1.19,ID,1707181125
220,vershino-darasunskiy,52.35,115.5167,-22.20999999999998,95,22,1.22,RU,1707181513
221,aasiaat,68.7098,-52.8699,-29.71999999999997,87,69,3.77,GL,1707181400
222,muynoq,43.7683,59.0214,4.0,65,100,7.11,UZ,1707181513
223,la'ie,21.6477,-157.9253,26.980000000000018,64,29,3.58,US,1707181513
224,carolina beach,34.0352,-77.8936,11.120000000000005,58,100,9.26,US,1707181377
225,mirny,62.5353,113.9611,-14.529999999999973,97,100,0.8,RU,1707181513
226,khanpur mahar,27.8436,69.4137,16.200000000000045,35,98,5.05,PK,1707181513
227,sao tome,0.3365,6.7273,27.350000000000023,78,100,1.74,ST,1707181514
228,sarakhs,36.5449,61.1577,8.590000000000032,42,6,5.12,IR,1707181514
229,floro,61.5996,5.0328,-2.019999999999982,86,76,4.12,NO,1707181514
230,papao,-17.75,-149.55,24.82000000000005,85,100,10.4,PF,1707181055
231,basugaon,26.4667,90.4,13.04000000000002,79,43,2.15,IN,1707181514
232,san patricio,28.017,-97.5169,16.620000000000005,73,0,3.43,US,1707181071
233,dunedin,-45.8742,170.5036,19.58000000000004,63,100,1.12,NZ,1707181515
234,saint-philippe,-21.3585,55.7679,21.77000000000004,77,72,3.71,RE,1707181515
235,guerrero negro,27.9769,-114.0611,17.310000000000002,63,23,4.47,MX,1707181515
236,rudbar,30.15,62.6,9.890000000000043,27,0,2.68,AF,1707181515
237,nchelenge,-9.3451,28.734,21.57000000000005,89,100,2.0,ZM,1707181515
238,le vauclin,14.5452,-60.8388,27.150000000000034,83,15,7.65,MQ,1707181515
239,hammerfest,70.6634,23.6821,-10.75,85,88,0.51,NO,1707181515
240,robit,12.0167,39.6333,17.53000000000003,83,97,1.67,ET,1707181516
241,arar,30.9753,41.0381,6.010000000000048,70,0,3.09,SA,1707181516
242,antsiranana,-12.2787,49.2917,24.160000000000025,92,47,1.75,MG,1707181516
243,montepuez,-13.1256,38.9997,21.80000000000001,97,100,1.17,MZ,1707181516
244,nizhniy kuranakh,58.8353,125.4869,-23.789999999999964,94,60,1.15,RU,1707181516
245,thompson,55.7435,-97.8558,-1.9099999999999682,100,100,2.57,CA,1707181321
246,tago,9.0211,126.2317,27.02000000000004,75,100,0.75,PH,1707181517
247,boende,-0.2167,20.8667,22.32000000000005,83,100,1.25,CD,1707181517
248,nago,26.5881,127.9761,18.24000000000001,68,34,4.87,JP,1707181517
249,ulaangom,49.9811,92.0667,-29.93999999999997,93,68,1.13,MN,1707181517
250,north branch,45.5113,-92.9802,3.9500000000000455,82,100,2.58,US,1707181517
251,merizo village,13.2658,144.6691,28.850000000000023,75,99,8.25,GU,1707181518
252,okha,53.5739,142.9478,-20.289999999999964,95,44,6.07,RU,1707181096
253,mbandaka,0.0487,18.2603,21.700000000000045,82,50,1.22,CD,1707181518
254,pemangkat,1.1667,108.9667,27.410000000000025,81,80,1.84,ID,1707181518
255,paita,-5.0892,-81.1144,24.840000000000032,86,47,4.85,PE,1707181368
256,i-n-salah,27.1935,2.4607,13.200000000000045,32,54,5.77,DZ,1707181518
257,luderitz,-26.6481,15.1594,18.25,89,6,2.19,NA,1707181519
258,enewetak,11.3474,162.3373,26.640000000000043,72,98,7.14,MH,1707181519
259,nogliki,51.8333,143.1667,-16.47999999999996,88,26,3.13,RU,1707181519
260,tucurui,-3.7661,-49.6725,23.980000000000018,95,96,1.49,BR,1707181374
261,presidente medici,-11.1753,-61.9014,23.5,93,98,1.31,BR,1707181098
262,east moriches,40.8051,-72.7609,2.7900000000000205,54,0,4.63,US,1707181519
263,waingapu,-9.6567,120.2641,28.689999999999998,72,45,3.62,ID,1707181519
264,ar ruways,24.1103,52.7306,17.850000000000023,62,66,4.29,AE,1707181520
265,fada,9.5667,8.3,19.32000000000005,22,73,4.32,NG,1707181097
266,coquimbo,-29.9533,-71.3436,18.850000000000023,88,20,3.09,CL,1707181396
267,toliara,-23.35,43.6667,24.670000000000016,86,5,3.36,MG,1707181520
268,guangyuan,32.442,105.823,5.770000000000039,58,100,1.34,CN,1707181520
269,poronaysk,49.2167,143.1167,-15.099999999999966,80,6,0.22,RU,1707181520
270,bich'vinta,43.1592,40.3378,8.990000000000009,84,100,12.14,GE,1707181521
271,mount pearl,47.5166,-52.7813,1.0900000000000318,98,100,9.26,CA,1707181368
272,al jawf,29.5,38.75,7.6299999999999955,58,0,3.88,SA,1707181355
273,yarmouth,41.7057,-70.2286,2.580000000000041,67,100,10.28,US,1707181521
274,muli,2.9167,73.5667,27.930000000000007,78,25,6.81,MV,1707181521
275,waddan,29.1614,16.139,10.480000000000018,59,0,1.09,LY,1707181521
276,turpan,42.9333,89.1667,-0.8700000000000045,52,61,0.87,CN,1707181522
277,nemuro,43.3236,145.575,-7.0,70,69,5.15,JP,1707181522
278,saint-pierre,-21.3393,55.4781,21.82000000000005,68,0,2.06,RE,1707181522
279,san jose,37.3394,-121.895,14.78000000000003,81,100,1.79,US,1707181186
280,balkanabat,39.5108,54.3671,8.170000000000016,53,66,3.26,TM,1707181124
281,at-bashi,41.1702,75.8106,-14.089999999999975,75,100,1.22,KG,1707181523
282,envira,-7.3,-70.2167,22.78000000000003,98,13,0.79,BR,1707181450
283,oyonnax,46.2592,5.6573,3.1200000000000045,70,61,0.58,FR,1707181523
284,live oak,36.9836,-121.9805,14.200000000000045,85,100,3.09,US,1707181523
285,holualoa,19.6228,-155.9522,23.910000000000025,82,75,5.14,US,1707181051
286,motygino,58.1831,94.7592,-11.870000000000005,98,100,1.49,RU,1707181523
287,santa ana de yacuma,-13.75,-65.4333,26.99000000000001,68,0,2.58,BO,1707181357
288,general villegas,-35.0328,-63.0125,29.910000000000025,39,100,2.78,AR,1707181312
289,tarauaca,-8.1614,-70.7656,22.870000000000005,98,25,1.37,BR,1707181504
290,rabaul,-4.1967,152.1721,29.03000000000003,72,100,3.33,PG,1707181524
291,arraial do cabo,-22.9661,-42.0278,24.980000000000018,88,40,2.06,BR,1707181302
292,chonchi,-42.6128,-73.8092,18.560000000000002,81,100,0.93,CL,1707181335
293,nuku'alofa,-21.1333,-175.2,26.370000000000005,76,100,8.63,TO,1707181524
294,roxas,11.5853,122.7511,23.970000000000027,84,100,4.9,PH,1707181525
295,ardakan,32.31,54.0175,6.340000000000032,24,99,0.97,IR,1707181525
296,khovd,48.0056,91.6419,-20.869999999999976,91,20,0.7,MN,1707181054
297,quellon,-43.1167,-73.6167,13.700000000000045,88,100,0.28,CL,1707181525
298,minas de marcona,-15.2119,-75.1103,20.189999999999998,83,81,3.57,PE,1707181525
299,hohoe,7.1518,0.4736,24.5,25,15,1.7,GH,1707181526
300,maiduguri,11.8464,13.1603,18.600000000000023,38,45,4.54,NG,1707181526
301,puerto aysen,-45.4,-72.7,14.420000000000016,81,100,2.02,CL,1707181098
302,samana,19.2056,-69.3369,25.610000000000014,81,81,5.93,DO,1707181526
303,az zabadani,33.7249,36.1005,4.890000000000043,89,52,2.63,SY,1707181526
304,nar'yan-mar,67.6713,53.087,-18.829999999999984,97,100,1.79,RU,1707181526
305,trancas,-26.2314,-65.2803,21.58000000000004,84,100,5.03,AR,1707181527
306,puerto deseado,-47.7503,-65.8938,17.860000000000014,58,0,9.39,AR,1707181052
307,port augusta,-32.5,137.7667,22.49000000000001,33,0,9.05,AU,1707181527
308,verkhnevilyuysk,63.4453,120.3167,-34.829999999999984,100,98,0.98,RU,1707181373
309,shivpuri,25.4333,77.65,13.360000000000014,81,76,2.38,IN,1707181527
310,mariani,26.6667,94.3333,13.720000000000027,94,95,0.92,IN,1707181527
311,as sulayyil,20.4607,45.5779,16.140000000000043,39,82,3.1,SA,1707181528
312,dzhankoy,45.7167,34.4,6.680000000000007,76,100,8.49,UA,1707181528
313,lido di ostia,41.7321,12.2765,12.840000000000032,53,40,3.6,IT,1707181528
314,george town,5.4112,100.3354,27.75,86,20,1.03,MY,1707181528
315,urengoy,65.9667,78.3667,-23.69999999999999,99,85,4.1,RU,1707181528
316,tazovsky,67.4667,78.7,-24.319999999999965,100,98,4.6,RU,1707181327
317,jamestown,42.097,-79.2353,-1.3799999999999955,87,0,4.12,US,1707181471
318,sal rei,16.1833,-22.9167,23.110000000000014,67,0,6.01,CV,1707181529
319,piti village,13.4626,144.6933,29.03000000000003,67,40,9.26,GU,1707181529
320,bodo,67.28,14.405,-4.569999999999993,68,0,8.23,NO,1707181088
321,antsohihy,-14.8796,47.9875,23.590000000000032,97,89,1.0,MG,1707181529
322,mount isa,-20.7333,139.5,32.870000000000005,58,100,3.6,AU,1707181529
323,tsetserleg,47.475,101.4542,-23.00999999999999,80,95,2.31,MN,1707181530
324,muntok,-2.0667,105.1833,27.100000000000023,81,100,2.22,ID,1707181530
325,obo,5.3998,26.4869,21.670000000000016,26,12,1.16,CF,1707181259
326,el quebrachal,-25.2833,-64.0667,27.04000000000002,61,100,1.44,AR,1707181530
327,port saint john's,-31.6229,29.5448,22.54000000000002,92,0,2.63,ZA,1707181530
328,silifke,36.3778,33.9344,13.140000000000043,51,0,4.94,TR,1707181531
329,ceeldheer,3.8488,47.1806,25.960000000000036,80,100,8.3,SO,1707181069
330,diamantina,-18.2494,-43.6003,18.600000000000023,89,99,1.87,BR,1707181531
331,hithadhoo,-0.6,73.0833,28.120000000000005,74,100,3.63,MV,1707181531
332,cockburn town,21.4612,-71.1419,25.53000000000003,82,49,5.09,TC,1707181076
333,kavieng,-2.5744,150.7967,28.650000000000034,77,59,2.96,PG,1707181108
334,les cayes,18.2,-73.75,24.49000000000001,87,9,6.36,HT,1707181370
335,alta,69.9689,23.2717,-17.409999999999968,85,81,3.6,NO,1707181532
336,oamaru,-45.0784,170.9801,22.99000000000001,60,100,0.39,NZ,1707181532
337,kourou,5.1552,-52.6478,27.03000000000003,89,100,3.56,GF,1707181532
338,pasni,25.2631,63.471,20.54000000000002,57,100,1.69,PK,1707181341
339,suva,-18.1416,178.4415,29.710000000000036,70,75,4.12,FJ,1707181533
340,baturaja,-4.1333,104.1667,23.900000000000034,97,100,0.73,ID,1707181533
341,howard springs,-12.497,131.047,32.210000000000036,77,24,3.78,AU,1707181346
342,isafjordur,66.0755,-23.124,-8.479999999999961,77,99,5.4,IS,1707181533
343,north bay,46.3168,-79.4663,-1.9899999999999523,74,0,1.54,CA,1707181534
344,lata,40.1629,-8.3327,11.07000000000005,89,100,0.25,PT,1707181534
345,diplo,24.4667,69.584,18.840000000000032,57,60,3.65,PK,1707181534
346,palikir - national government center,6.9248,158.1611,27.08000000000004,69,15,6.39,FM,1707181318
347,flin flon,54.7682,-101.865,-0.08999999999997499,100,100,3.09,CA,1707181534
348,halifax,44.6453,-63.5724,1.0,91,96,7.15,CA,1707181201
349,tazacorte,28.629,-17.9293,20.08000000000004,23,0,4.02,ES,1707181535
350,tsiombe,-25.3,45.4833,22.200000000000045,93,15,2.75,MG,1707181326
351,kavaratti,10.5669,72.642,27.620000000000005,76,100,4.13,IN,1707181535
352,san andres,12.5847,-81.7006,28.010000000000048,78,20,3.6,CO,1707181366
353,san felipe,10.3399,-68.7425,25.100000000000023,82,96,1.8,VE,1707181535
354,marsh harbour,26.5412,-77.0636,20.620000000000005,76,100,6.89,BS,1707181223
355,kiunga,-6.1219,141.2906,29.379999999999995,75,75,1.59,PG,1707181312
356,hashtrud,37.4779,47.0508,-0.3499999999999659,88,58,10.77,IR,1707181536
357,najran,17.4924,44.1277,14.360000000000014,69,0,0.98,SA,1707181062
358,chemin grenier,-20.4872,57.4656,21.980000000000018,77,1,2.91,MU,1707181536
359,kargasok,59.0556,80.8572,-5.019999999999982,94,100,5.81,RU,1707181052
360,markala,13.7021,-6.0659,23.08000000000004,11,0,4.88,ML,1707181537
361,saratovskaya,44.7103,39.2244,4.230000000000018,75,70,7.37,RU,1707181537
362,neryungri,56.6709,124.6491,-22.649999999999977,98,83,0.55,RU,1707181537
363,flying fish cove,-10.4217,105.6791,24.82000000000005,100,92,1.03,CX,1707181537
364,chikwawa,-16.0335,34.8009,24.210000000000036,82,6,0.82,MW,1707181537
365,sola,-13.8833,167.55,28.54000000000002,71,100,6.13,VU,1707181538
366,hluti,-27.2167,31.6167,18.04000000000002,96,7,0.9,SZ,1707181538
367,walvis bay,-22.9575,14.5053,19.53000000000003,88,88,2.06,NA,1707181538
368,sarkand,45.41,79.9186,-5.859999999999957,64,22,3.74,KZ,1707181538
369,temirtau,50.0544,72.9483,-9.039999999999964,84,100,4.2,KZ,1707181538
370,dongola,19.1667,30.4833,13.410000000000025,32,99,5.85,SD,1707181345
371,nishinoomote,30.7333,131.0,13.310000000000002,66,20,5.14,JP,1707181539
372,princeville,45.7668,-61.2985,1.4500000000000455,95,100,3.6,CA,1707181539
373,ad dilam,23.9915,47.1627,14.230000000000018,42,100,1.94,SA,1707181539
374,qamdo,31.1667,97.2333,-7.75,45,80,3.77,CN,1707181539
375,castillos,-34.1667,-53.8333,20.200000000000045,72,98,4.4,UY,1707181539
376,tanabe,33.7333,135.3667,8.560000000000002,61,20,4.63,JP,1707181540
377,adrar,20.5022,-10.0711,15.730000000000018,13,0,5.05,MR,1707181304
378,namibe,-15.1961,12.1522,24.629999999999995,81,100,3.29,AO,1707181358
379,saldanha,-33.0117,17.9442,20.03000000000003,97,52,0.76,ZA,1707181540
380,"laikit, laikit ii (dimembe)",1.4792,124.9735,28.470000000000027,70,40,1.03,ID,1707181540
381,busselton,-33.65,115.3333,19.950000000000045,46,6,4.5,AU,1707181540
382,visakhapatnam,17.69,83.2093,22.939999999999998,100,20,1.03,IN,1707181541
383,cowra,-33.8333,148.6833,24.610000000000014,72,85,3.91,AU,1707181541
384,puerto armuelles,8.2833,-82.8667,29.49000000000001,57,3,4.47,PA,1707181541
385,machico,32.7,-16.7667,18.350000000000023,79,20,3.6,PT,1707181541
386,selfoss,63.9331,-20.9971,-13.729999999999961,87,4,4.23,IS,1707181357
387,high rock,26.6208,-78.2833,17.010000000000048,82,100,4.46,BS,1707181542
388,matoury,4.8483,-52.3317,26.980000000000018,89,20,2.57,GF,1707181542
389,shingu,33.7333,135.9833,8.620000000000005,59,2,3.6,JP,1707181088
390,fort mcmurray,56.7268,-111.381,-10.229999999999961,73,20,5.14,CA,1707181542
391,mossel bay,-34.1831,22.146,21.960000000000036,82,35,1.54,ZA,1707181115
392,illizi,26.4833,8.4667,8.890000000000043,40,0,4.79,DZ,1707181542
393,camayenne,9.535,-13.6878,26.05000000000001,89,0,0.0,GN,1707181542
394,tyukalinsk,55.8732,72.1967,-1.0399999999999636,95,100,7.96,RU,1707181543
395,natal,-5.795,-35.2094,28.120000000000005,83,75,2.57,BR,1707181543
396,nikolayevsk-on-amure,53.1406,140.73,-16.689999999999998,84,8,2.28,RU,1707181310
397,qandala,11.472,49.8728,24.83000000000004,83,34,2.41,SO,1707181543
398,khorugh,37.4897,71.553,-15.329999999999984,87,98,0.22,TJ,1707181543
399,yondo,7.0062,-73.9097,24.110000000000014,92,69,0.28,CO,1707181543
400,aleksandrovsk-sakhalinskiy,50.8975,142.1561,-16.349999999999966,89,42,1.42,RU,1707181383
401,bandar lampung,-5.4254,105.258,25.57000000000005,88,100,1.69,ID,1707181544
402,bengkulu,-3.8004,102.2655,25.340000000000032,88,100,1.64,ID,1707181544
403,shenjiamen,29.9576,122.298,3.150000000000034,86,100,5.6,CN,1707181544
404,mejit,10.2753,170.8646,26.870000000000005,80,9,8.48,MH,1707181378
405,saint-joseph,-21.3667,55.6167,21.210000000000036,77,76,3.53,RE,1707181088
406,aykhal,66.0,111.5,-20.819999999999965,99,100,2.6,RU,1707181059
407,baiyin,36.5583,104.2081,-6.609999999999957,71,100,1.17,CN,1707181076
408,fukuecho,32.6881,128.8419,9.200000000000045,87,75,1.03,JP,1707181545
409,ingeniero guillermo n. juarez,-23.9,-61.85,32.18000000000001,35,89,4.92,AR,1707181545
410,rio grande,-32.035,-52.0986,25.060000000000002,84,100,5.97,BR,1707181545
411,cabo san lucas,22.8909,-109.9124,24.310000000000002,54,99,3.13,MX,1707181095
412,elliot lake,46.3834,-82.6331,0.060000000000002274,82,100,1.37,CA,1707181545
413,ebaye,8.7748,167.7392,30.010000000000048,70,40,7.72,MH,1707181545
414,autazes,-3.5797,-59.1306,26.430000000000007,82,90,1.05,BR,1707181546
415,bandon,51.7469,-8.7425,10.770000000000039,82,100,8.59,IE,1707181546
416,tofol,5.3248,163.0078,27.860000000000014,71,100,6.47,FM,1707181379
417,pariaman,-0.619,100.12,27.03000000000003,80,99,1.48,ID,1707181546
418,cabanillas del campo,40.6338,-3.2294,10.950000000000045,81,100,0.79,ES,1707181546
419,ifrane,33.3333,-5.25,5.2900000000000205,59,100,1.85,MA,1707181546
420,ji'an,27.1172,114.9793,3.230000000000018,93,100,2.79,CN,1707181546
421,gummi,12.1436,5.1081,20.710000000000036,15,84,5.88,NG,1707181547
422,howrah,22.5892,88.3103,20.0,94,75,2.06,IN,1707181547
423,parsons,37.3403,-95.2611,8.160000000000025,63,0,2.86,US,1707181547
424,willowmore,-33.2926,23.4895,22.29000000000002,55,5,1.43,ZA,1707181547
425,soroti,1.7146,33.6111,20.77000000000004,73,56,2.3,UG,1707181547
426,sidi akkacha,36.4647,1.3026,15.160000000000025,37,100,2.89,DZ,1707181547
427,ust'-talovka,50.5493,81.85,-16.310000000000002,93,75,1.85,KZ,1707181547
428,khandyga,62.6667,135.6,-38.079999999999984,98,60,0.62,RU,1707181337
429,pacific grove,36.6177,-121.9166,13.010000000000048,85,100,2.57,US,1707181096
430,sosnovo-ozerskoye,52.5249,111.5418,-27.49999999999997,100,94,1.0,RU,1707181548
431,palu,-0.8917,119.8707,29.060000000000002,70,100,0.39,ID,1707181303
432,byron bay,-28.65,153.6167,31.510000000000048,60,6,3.9,AU,1707181519
433,devils lake,48.1128,-98.8651,2.0600000000000023,100,100,3.6,US,1707181548
434,port hedland,-20.3167,118.5667,31.03000000000003,66,98,4.63,AU,1707181234
435,eirunepe,-6.6603,-69.8736,23.29000000000002,98,38,0.22,BR,1707181549
436,bealanana,-14.55,48.7333,19.27000000000004,96,100,0.32,MG,1707181549
437,sinabang,2.4803,96.3801,27.210000000000036,80,73,1.26,ID,1707181332
438,hun,29.1268,15.9477,10.470000000000027,57,0,1.17,LY,1707181125
439,puyang chengguanzhen,35.7028,115.0053,-1.9799999999999613,78,100,1.42,CN,1707181549
440,norton,-17.8833,30.7,19.04000000000002,72,2,2.25,ZW,1707181549
441,hobyo,5.3505,48.5268,26.140000000000043,77,81,7.23,SO,1707181086
442,auki,-8.7676,160.7034,28.58000000000004,83,100,6.91,SB,1707181066
443,avesta,60.1455,16.1679,-10.669999999999959,96,37,1.4,SE,1707181550
444,el granada,37.5027,-122.4694,14.53000000000003,79,75,2.57,US,1707181550
445,aleksandriyskaya,44.2272,43.3453,5.510000000000048,86,100,9.68,RU,1707181550
446,ujae,8.9322,165.7642,27.340000000000032,79,27,8.15,MH,1707181104
447,maintirano,-18.0667,44.0167,26.910000000000025,82,50,1.7,MG,1707181550
448,sansanne-mango,10.3592,0.4708,26.210000000000036,13,100,4.49,TG,1707181550
449,shambu,9.5667,37.1,12.060000000000002,76,69,0.46,ET,1707181551
450,slave lake,55.2834,-114.769,-6.009999999999991,53,100,1.03,CA,1707181545
451,la cabecera,18.8442,-99.5872,25.53000000000003,23,0,2.18,MX,1707181551
452,forster,-32.1667,152.5167,30.77000000000004,71,8,4.23,AU,1707181551
453,touros,-5.1989,-35.4608,27.430000000000007,78,72,5.37,BR,1707181551
454,port arthur,38.8,121.2667,-6.8799999999999955,59,0,7.66,CN,1707181551
455,rawson,-43.3002,-65.1023,24.53000000000003,42,72,7.85,AR,1707181056
456,alesund,62.4723,6.1549,-0.6899999999999977,95,100,2.57,NO,1707181552
457,usogorsk,63.4106,48.6872,-20.18999999999997,97,100,2.04,RU,1707181552
458,capitan bado,-23.2667,-55.5333,23.49000000000001,73,100,1.74,PY,1707181430
459,robore,-18.3333,-59.75,26.060000000000002,59,46,1.8,BO,1707181552
460,nagqu,31.5,92.0,-9.689999999999998,15,83,6.25,CN,1707181347
461,sandnessjoen,66.0217,12.6316,-12.70999999999998,84,64,6.61,NO,1707181552
462,mangai,-4.05,19.5333,20.79000000000002,98,100,0.28,CD,1707181553
463,nyagan,62.1406,65.3936,-20.829999999999984,100,92,1.24,RU,1707181553
464,vanimo,-2.6741,141.3028,29.03000000000003,77,100,3.15,PG,1707181385
465,charters towers,-20.1,146.2667,31.610000000000014,55,5,2.46,AU,1707181121
466,filingue,14.3521,3.3168,20.160000000000025,13,98,7.0,NE,1707181553
467,sumbe,-11.2061,13.8437,26.850000000000023,87,100,3.16,AO,1707181553
468,buriti bravo,-5.8372,-43.8336,25.27000000000004,68,99,0.68,BR,1707181375
469,hasaki,35.7333,140.8333,4.050000000000011,78,100,10.86,JP,1707181554
470,zaragoza,41.6561,-0.8773,11.120000000000005,100,100,0.0,ES,1707181554
471,sisimiut,66.9395,-53.6735,-17.70999999999998,72,64,6.43,GL,1707181554
472,rotonda west,26.8837,-82.2901,17.02000000000004,100,0,1.54,US,1707181554
473,camrose,53.0168,-112.8353,-6.71999999999997,81,100,1.18,CA,1707181304
474,bowen,-20.0167,148.2333,29.32000000000005,66,15,3.2,AU,1707181554
475,vallenar,-28.5708,-70.7581,20.879999999999995,62,1,1.35,CL,1707181554
476,ambam,2.3833,11.2833,20.420000000000016,99,14,0.68,CM,1707181555
477,sekong,-6.3996,106.0252,24.04000000000002,96,100,1.2,ID,1707181555
478,hauterive,46.0901,3.4459,3.8799999999999955,93,93,0.51,FR,1707181329
479,deqen,29.9618,90.7188,-3.089999999999975,12,12,8.97,CN,1707181555
480,obock,12.25,43.0833,19.379999999999995,80,0,1.07,DJ,1707181555
481,palapye,-22.546,27.1251,24.340000000000032,46,11,1.63,BW,1707181555
482,hilo,19.7297,-155.09,24.58000000000004,77,75,3.6,US,1707181047
483,kavalerovo,44.2661,135.0572,-8.579999999999984,69,84,2.24,RU,1707181556
484,puerto leguizamo,-0.1934,-74.7819,22.310000000000002,99,100,0.81,CO,1707181556
485,lamu,-2.2717,40.902,26.350000000000023,85,97,4.47,KE,1707181556
486,khairpur nathan shah,27.0936,67.7337,17.32000000000005,41,100,3.67,PK,1707181556
487,melipilla,-33.7,-71.2167,26.470000000000027,74,100,1.51,CL,1707181556
488,conceicao da barra,-18.5933,-39.7322,24.74000000000001,92,100,2.32,BR,1707181556
489,plettenberg bay,-34.0527,23.3716,20.78000000000003,89,95,2.07,ZA,1707181556
490,arkhangel'sk,64.5401,40.5433,-24.92999999999998,79,0,1.0,RU,1707181557
491,shahr-e babak,30.1165,55.1186,0.6899999999999977,24,0,2.46,IR,1707181557
492,choibalsan,48.0667,114.5,-21.74999999999997,91,5,3.23,MN,1707181098
493,namsos,64.4662,11.4957,-1.9699999999999704,93,86,4.63,NO,1707181557
494,neem ka thana,27.7333,75.8,7.330000000000041,55,13,1.51,IN,1707181557
495,kyzyl-mazhalyk,51.1333,90.6,-26.71999999999997,90,44,1.34,RU,1707181557
496,mata-utu,-13.2816,-176.1745,28.75,78,100,3.93,WF,1707181558
497,cheremukhovo,60.3484,59.9851,-18.42999999999998,93,100,2.68,RU,1707181558
498,nahiyat ash shinafiyah,31.5874,44.6602,13.300000000000011,38,6,4.78,IQ,1707181558
499,cromer,52.9312,1.2989,11.189999999999998,74,100,12.69,GB,1707181558
500,ocean shores,46.9737,-124.1563,8.860000000000014,88,100,2.57,US,1707181082
501,fort st. john,56.2499,-120.8529,-6.060000000000002,68,75,3.09,CA,1707181240
502,lompoc,34.6391,-120.4579,14.32000000000005,82,100,2.57,US,1707181321
503,rifle,39.5347,-107.7831,6.390000000000043,60,0,1.54,US,1707181558
504,weno,7.4515,151.8468,29.970000000000027,62,40,6.17,FM,1707181559
505,terrace,54.5163,-128.6035,1.7900000000000205,55,20,7.72,CA,1707181559
506,malpica,43.3228,-8.8105,12.430000000000007,69,100,1.64,ES,1707181302
507,puerto lempira,15.2667,-83.7667,26.08000000000004,78,40,5.14,HN,1707181559
508,inongo,-1.95,18.2667,22.05000000000001,91,100,2.8,CD,1707181290
509,hovd,48.0056,91.6419,-20.869999999999976,91,20,0.7,MN,1707181559
510,akjoujt,19.6969,-14.4164,20.53000000000003,8,1,5.83,MR,1707181349
511,swakopmund,-22.6833,14.5333,19.470000000000027,85,95,2.45,NA,1707181560
512,lincheng,19.9078,109.6858,22.860000000000014,84,18,5.19,CN,1707181127
513,tra mhor,52.1624,-7.1524,10.410000000000025,79,100,3.13,IE,1707181560
514,namtsy,62.7161,129.6658,-40.39999999999998,100,69,0.51,RU,1707181560
515,egersund,58.4513,5.9997,1.160000000000025,80,100,3.61,NO,1707181560
516,bahia de kino,28.8333,-111.9333,26.510000000000048,44,100,1.36,MX,1707181560
517,sao joao da barra,-21.6403,-41.0511,26.05000000000001,90,100,4.87,BR,1707181560
518,jurm,36.8648,70.8342,-6.509999999999991,62,59,3.14,AF,1707181561
519,burgess hill,50.9584,-0.1329,11.990000000000009,78,100,6.26,GB,1707181535
520,terrell,32.736,-96.2753,14.720000000000027,61,0,3.09,US,1707181387
521,hadibu,12.65,54.0333,24.060000000000002,76,3,2.52,YE,1707181561
522,kununurra,-15.7667,128.7333,32.99000000000001,55,5,3.6,AU,1707181377
523,prince rupert,54.3161,-130.3201,4.830000000000041,70,0,5.66,CA,1707180910
524,prado,-17.3411,-39.2208,25.370000000000005,89,91,2.61,BR,1707181561
525,ryotsu-minato,38.0833,138.4333,4.420000000000016,77,100,4.87,JP,1707181064
526,kerikeri,-35.2268,173.9474,23.860000000000014,55,35,3.71,NZ,1707181562
527,thorne,53.6112,-0.9631,12.490000000000009,74,100,8.48,GB,1707181562
528,berezovyy,51.6667,135.7,-16.20999999999998,74,2,0.55,RU,1707181562
529,port victoria,0.0939,33.9756,21.600000000000023,74,9,2.06,KE,1707181110
530,lagoa,39.05,-27.9833,16.720000000000027,88,100,6.09,PT,1707181562
531,ugoofaaru,5.6667,73.0,27.930000000000007,72,49,6.63,MV,1707181563
532,sao gabriel da cachoeira,-0.1303,-67.0892,23.83000000000004,98,100,0.32,BR,1707181123
533,vorkuta,67.5,64.0,-25.23999999999998,99,97,2.03,RU,1707181563
534,milas,37.3164,27.7839,13.600000000000023,100,0,2.06,TR,1707181275
535,dauphin,51.1494,-100.0502,2.080000000000041,93,100,3.6,CA,1707181483
536,canmore,51.0834,-115.3521,-2.2899999999999636,94,100,1.54,CA,1707181320
537,almenara,-16.1836,-40.6944,22.430000000000007,96,10,0.72,BR,1707181563
538,mahavelona,-17.6848,49.5087,23.99000000000001,92,100,1.05,MG,1707181564
539,porto novo,6.4965,2.6036,26.900000000000034,63,8,1.7,BJ,1707181564
540,monrovia,6.3005,-10.7969,24.870000000000005,89,23,1.58,LR,1707181564
541,kalymnos,36.95,26.9833,14.740000000000009,82,20,1.03,GR,1707181564
542,angra do heroismo,38.65,-27.2167,18.340000000000032,97,40,2.24,PT,1707181564
543,chibougamau,49.9168,-74.3659,-14.20999999999998,78,0,2.06,CA,1707180860
544,alofi,-19.0595,-169.9187,29.939999999999998,66,40,5.66,NU,1707181565
545,necochea,-38.5473,-58.7368,22.890000000000043,58,92,7.3,AR,1707181073
546,zvishavane,-20.3267,30.0665,21.260000000000048,63,0,0.83,ZW,1707181565
547,fontem,5.4685,9.8818,20.840000000000032,49,79,1.06,CM,1707181565
548,araci,-11.3333,-38.9667,23.870000000000005,84,43,4.29,BR,1707181565
549,zheleznodorozhnyy,55.7503,38.0042,-3.25,97,98,2.2,RU,1707181565
550,lazaro cardenas,17.9583,-102.2,24.590000000000032,77,0,1.42,MX,1707181566
551,gilgit,35.9221,74.3087,-7.159999999999968,74,41,1.62,PK,1707181566
552,kirsehir,39.3333,34.1667,5.03000000000003,80,95,4.03,TR,1707181566
553,tumayr,25.7039,45.868,10.020000000000039,52,4,3.43,SA,1707181566
554,pathein,16.7833,94.7333,20.850000000000023,75,5,2.57,MM,1707181566
555,talcahuano,-36.7167,-73.1167,16.82000000000005,94,20,3.6,CL,1707181076
556,sao raimundo das mangabeiras,-7.0219,-45.4811,26.060000000000002,63,97,1.12,BR,1707181123
557,annonay,45.2397,4.6708,6.010000000000048,67,100,1.42,FR,1707181567
558,oltinko'l,40.8011,72.1634,1.3000000000000114,59,66,2.08,UZ,1707181567
559,kone,-21.0595,164.8658,27.189999999999998,87,100,2.67,NC,1707181567
560,new norfolk,-42.7826,147.0587,19.400000000000034,32,65,3.44,AU,1707181329
561,antofagasta,-23.65,-70.4,24.600000000000023,78,15,0.75,CL,1707181215
562,shimoda,34.6667,138.95,7.2000000000000455,96,100,6.34,JP,1707181567
563,parauapebas,-6.0675,-49.9022,24.99000000000001,94,0,0.0,BR,1707181391
564,saudarkrokur,65.7461,-19.6394,-6.409999999999968,91,100,7.83,IS,1707180867
565,rostovka,55.3842,71.8891,-0.8499999999999659,94,100,8.01,RU,1707181568
566,vrangel',42.7297,133.0839,-7.029999999999973,48,100,2.07,RU,1707181568
567,san bernardo,-33.6,-70.7167,27.640000000000043,43,100,1.83,CL,1707181568
568,shuangjiang,26.1547,109.7138,-0.75,94,100,1.93,CN,1707181568
569,kerman,30.2832,57.0788,-5.079999999999984,30,0,2.06,IR,1707181568
570,aswan,24.0934,32.907,12.610000000000014,43,0,2.57,EG,1707181074
571,union,40.6334,-74.2663,4.020000000000039,41,0,6.17,US,1707181569
572,aba,5.1066,7.3667,25.08000000000004,82,90,0.23,NG,1707181569
573,muisne,0.6,-80.0333,26.220000000000027,87,60,2.17,EC,1707181569
574,tobruk,32.0836,23.9764,14.29000000000002,83,0,5.27,LY,1707181569
575,tisul',55.7611,88.3122,-9.620000000000005,88,66,2.27,RU,1707181570
576,tangalle,6.024,80.7911,24.090000000000032,88,99,4.35,LK,1707181303
577,essex,40.7834,-74.2163,3.2700000000000387,41,20,6.17,US,1707181570
578,bikenibeu village,1.3673,173.1241,30.980000000000018,74,75,3.6,KI,1707181079
579,erdaojiang,41.7764,126.0319,-9.129999999999995,85,100,1.07,CN,1707181571
580,caleta de carquin,-11.0925,-77.6267,24.52000000000004,80,71,3.51,PE,1707181571
581,guarapari,-20.6667,-40.4975,26.610000000000014,93,100,3.29,BR,1707181345
582,vorgashor,67.5833,63.95,-24.00999999999999,97,92,2.8,RU,1707181571
